$GPRMC,140053,A,4454.174,N,9325.0143,W,0,128.7,300508,1.1,E,A*2E,,,,,,,
$GPGGA,140053,4454.174,N,9325.0143,W,1,9,1.1,289.8,M,-30.7,M,,*5E,,,,,
$GPGSA,A,3,21,15,18,24,26,29,6,22,,3,,,2,1.1,01.7*04,,
$GPGSV,3,1,12,21,75,306,40,15,59,75,46,18,57,269,49,24,56,115,46*79
$GPGSV,3,2,12,26,48,59,43,29,27,188,48,6,25,308,41,22,18,257,33*7D
$GPGSV,3,3,12,8,14,60,,3,11,320,32,9,6,144,,16,4,311,*7C
$GPRMC,140054,A,4454.174,N,9325.0143,W,0,128.7,300508,1.1,E,A*29,,,,,,,
$GPGGA,140054,4454.174,N,9325.0143,W,1,9,1.1,289.8,M,-30.7,M,,*59,,,,,
$GPGSA,A,3,21,15,18,24,26,29,6,22,,3,,,2,1.1,01.7*04,,
$GPGSV,3,1,12,21,75,306,40,15,59,75,46,18,57,269,49,24,56,115,46*79
$GPGSV,3,2,12,26,48,59,43,29,27,188,48,6,25,308,41,22,18,257,33*7D
$GPGSV,3,3,12,8,14,60,,3,11,320,32,9,6,144,,16,4,311,*7C
$GPRMC,140055,A,4454.174,N,9325.0143,W,0,128.7,300508,1.1,E,A*28,,,,,,,
$GPGGA,140055,4454.174,N,9325.0143,W,1,9,1.1,289.8,M,-30.7,M,,*58,,,,,
$GPGSA,A,3,21,15,18,24,26,29,6,22,,3,,,2,1.1,01.7*04,,
$GPGSV,3,1,12,21,75,306,40,15,59,75,46,18,57,269,49,24,56,115,46*79
$GPGSV,3,2,12,26,48,59,43,29,27,188,48,6,25,308,41,22,18,257,33*7D
$GPGSV,3,3,12,8,14,60,,3,11,320,32,9,6,144,,16,4,311,*7C
$GPRMC,140056,A,4454.174,N,9325.0143,W,0,128.7,300508,1.1,E,A*2B,,,,,,,
$GPGGA,140056,4454.174,N,9325.0143,W,1,9,1.1,289.8,M,-30.7,M,,*5B,,,,,
$GPGSA,A,3,21,15,18,24,26,29,6,22,,3,,,2,1.1,01.7*04,,
$GPGSV,3,1,12,21,75,306,40,15,59,75,46,18,57,269,49,24,56,115,46*79
$GPGSV,3,2,12,26,48,59,43,29,27,188,48,6,25,308,41,22,18,257,33*7D
$GPGSV,3,3,12,8,14,60,,3,11,320,32,9,6,144,,16,4,311,*7C
$GPRMC,140057,A,4454.174,N,9325.0143,W,0,128.7,300508,1.1,E,A*2A,,,,,,,
$GPGGA,140057,4454.174,N,9325.0143,W,1,9,1.1,289.8,M,-30.7,M,,*5A,,,,,
$GPGSA,A,3,21,15,18,24,26,29,6,22,,3,,,2,1.1,01.7*04,,
$GPGSV,3,1,12,21,75,306,40,15,59,75,46,18,57,269,49,24,56,115,46*79
$GPGSV,3,2,12,26,48,59,43,29,27,188,48,6,25,308,41,22,18,257,33*7D
$GPGSV,3,3,12,8,14,60,,3,11,320,32,9,6,144,,16,4,311,*7C
$GPRMC,140058,A,4454.174,N,9325.0143,W,0.1,128.7,300508,1.1,E,A*24,,,,,,,
$GPGGA,140058,4454.174,N,9325.0143,W,1,9,1.1,289.8,M,-30.7,M,,*55,,,,,
$GPGSA,A,3,21,15,18,24,26,29,6,22,,3,,,2,1.1,01.7*04,,
$GPGSV,3,1,12,21,75,306,40,15,59,75,46,18,57,269,49,24,56,115,46*79
$GPGSV,3,2,12,26,48,59,43,29,27,188,48,6,25,308,41,22,18,257,33*7D
$GPGSV,3,3,12,8,14,60,,3,11,320,32,9,6,144,,16,4,311,*7C
$GPRMC,140059,A,4454.174,N,9325.0143,W,0,128.7,300508,1.1,E,A*24,,,,,,,
$GPGGA,140059,4454.174,N,9325.0143,W,1,9,1.1,289.8,M,-30.7,M,,*54,,,,,
$GPGSA,A,3,21,15,18,24,26,29,6,22,,3,,,2,1.1,01.7*04,,
$GPGSV,3,1,12,21,75,306,40,15,59,75,46,18,57,269,49,24,56,115,46*79
$GPGSV,3,2,12,26,48,59,42,29,26,188,48,6,25,308,41,22,18,257,33*7D
$GPGSV,3,3,12,8,14,60,,3,11,320,32,9,6,144,,16,4,311,*7C
$GPRMC,140100,A,4454.174,N,9325.0143,W,0,128.7,300508,1.1,E,A*29,,,,,,,
$GPGGA,140100,4454.174,N,9325.0143,W,1,9,1.1,289.8,M,-30.7,M,,*59,,,,,
$GPGSA,A,3,21,15,18,24,26,29,6,22,,3,,,2,1.1,01.7*04,,
$GPGSV,3,1,12,21,75,306,40,15,59,75,46,18,57,269,49,24,56,115,46*79
$GPGSV,3,2,12,26,48,59,42,29,26,188,48,6,25,308,41,22,18,257,33*7D
$GPGSV,3,3,12,8,14,60,,3,11,320,32,9,6,144,,16,4,311,*7C
$GPRMC,140101,A,4454.174,N,9325.0143,W,0,128.7,300508,1.1,E,A*28,,,,,,,
$GPGGA,140101,4454.174,N,9325.0143,W,1,9,1.1,289.8,M,-30.7,M,,*58,,,,,
$GPGSA,A,3,21,15,18,24,26,29,6,22,,3,,,2,1.1,01.7*04,,
$GPGSV,3,1,12,21,75,306,40,15,59,75,46,18,57,269,49,24,56,115,46*79
$GPGSV,3,2,12,26,48,59,42,29,26,188,48,6,25,308,41,22,18,257,33*7D
$GPGSV,3,3,12,8,14,60,,3,11,320,33,9,6,144,,16,4,311,*7D
$GPRMC,140102,A,4454.174,N,9325.0143,W,0,128.7,300508,1.1,E,A*2B,,,,,,,
$GPGGA,140102,4454.174,N,9325.0143,W,1,9,1.1,289.8,M,-30.7,M,,*5B,,,,,
$GPGSA,A,3,21,15,18,24,26,29,6,22,,3,,,2,1.1,01.7*04,,
$GPGSV,3,1,12,21,75,306,40,15,59,75,46,18,57,269,49,24,56,115,46*79
$GPGSV,3,2,12,26,48,59,42,29,26,188,48,6,25,308,41,22,18,257,33*7D
$GPGSV,3,3,12,8,14,60,,3,11,320,33,9,6,144,,16,4,311,*7D
$GPRMC,140103,A,4454.174,N,9325.0143,W,0,128.7,300508,1.1,E,A*2A,,,,,,,
$GPGGA,140103,4454.174,N,9325.0143,W,1,9,1.1,289.8,M,-30.7,M,,*5A,,,,,
$GPGSA,A,3,21,15,18,24,26,29,6,22,,3,,,2,1.1,01.7*04,,
$GPGSV,3,1,12,21,75,306,39,15,59,75,46,18,57,269,49,24,56,115,46*77
$GPGSV,3,2,12,26,48,59,42,29,26,188,48,6,25,308,41,22,18,257,33*7D
$GPGSV,3,3,12,8,14,60,,3,11,320,33,9,6,144,,16,4,311,*7D
$GPRMC,140104,A,4454.174,N,9325.0143,W,0,128.7,300508,1.1,E,A*2D,,,,,,,
$GPGGA,140104,4454.174,N,9325.0143,W,1,9,1.1,289.8,M,-30.7,M,,*5D,,,,,
$GPGSA,A,3,21,15,18,24,26,29,6,22,,3,,,2,1.1,01.7*04,,
$GPGSV,3,1,12,21,75,306,39,15,59,75,46,18,57,269,49,24,56,115,46*77
$GPGSV,3,2,12,26,48,59,42,29,26,188,48,6,25,308,41,22,18,257,33*7D
$GPGSV,3,3,12,8,14,60,,3,11,320,33,9,6,144,,16,4,311,*7D
$GPRMC,140105,A,4454.174,N,9325.0143,W,0,128.7,300508,1.1,E,A*2C,,,,,,,
$GPGGA,140105,4454.174,N,9325.0143,W,1,9,1.1,289.8,M,-30.7,M,,*5C,,,,,
$GPGSA,A,3,21,15,18,24,26,29,6,22,,3,,,2,1.1,01.7*04,,
$GPGSV,3,1,12,21,75,306,39,15,59,75,46,18,57,269,49,24,56,115,46*77
$GPGSV,3,2,12,26,48,59,42,29,26,188,48,6,25,308,41,22,18,257,33*7D
$GPGSV,3,3,12,8,14,60,,3,11,320,33,9,6,144,,16,4,311,*7D
$GPRMC,140106,A,4454.174,N,9325.0143,W,0,128.7,300508,1.1,E,A*2F,,,,,,,
$GPGGA,140106,4454.174,N,9325.0143,W,1,9,1.1,289.8,M,-30.7,M,,*5F,,,,,
$GPGSA,A,3,21,15,18,24,26,29,6,22,,3,,,2,1.1,01.7*04,,
$GPGSV,3,1,12,21,75,306,39,15,59,75,46,18,57,269,49,24,56,115,46*77
$GPGSV,3,2,12,26,48,59,42,29,26,188,48,6,25,308,41,22,18,257,33*7D
$GPGSV,3,3,12,8,14,60,,3,11,320,33,9,6,144,,16,4,311,*7D
$GPRMC,140107,A,4454.174,N,9325.0143,W,0,128.7,300508,1.1,E,A*2E,,,,,,,
$GPGGA,140107,4454.174,N,9325.0143,W,1,9,1.1,289.8,M,-30.7,M,,*5E,,,,,
$GPGSA,A,3,21,15,18,24,26,29,6,22,,3,,,2,1.1,01.7*04,,
$GPGSV,3,1,12,21,75,306,39,15,59,75,46,18,57,269,49,24,56,115,46*77
$GPGSV,3,2,12,26,48,59,42,29,26,188,48,6,25,308,41,22,18,257,33*7D
$GPGSV,3,3,12,8,14,60,,3,11,320,33,9,6,144,,16,4,311,*7D
$GPRMC,140108,A,4454.174,N,9325.0143,W,0,128.7,300508,1.1,E,A*21,,,,,,,
$GPGGA,140108,4454.174,N,9325.0143,W,1,9,1.1,289.8,M,-30.7,M,,*51,,,,,
$GPGSA,A,3,21,15,18,24,26,29,6,22,,3,,,2,1.1,01.7*04,,
$GPGSV,3,1,12,21,75,306,39,15,59,75,46,18,57,269,49,24,56,115,46*77
$GPGSV,3,2,12,26,48,59,42,29,26,188,48,6,25,308,41,22,18,257,33*7D
$GPGSV,3,3,12,8,14,60,,3,11,320,33,9,6,144,,16,4,311,*7D
$GPRMC,140109,A,4454.174,N,9325.0143,W,0,128.7,300508,1.1,E,A*20,,,,,,,
$GPGGA,140109,4454.174,N,9325.0143,W,1,9,1.1,289.8,M,-30.7,M,,*50,,,,,
$GPGSA,A,3,21,15,18,24,26,29,6,22,,3,,,2,1.1,01.7*04,,
$GPGSV,3,1,12,21,75,306,39,15,59,75,46,18,57,269,49,24,56,115,46*77
$GPGSV,3,2,12,26,48,59,42,29,26,188,48,6,25,308,41,22,18,257,33*7D
$GPGSV,3,3,12,8,14,60,,3,12,320,33,9,6,144,,16,4,311,*7E
$GPRMC,140110,A,4454.174,N,9325.0143,W,0,128.7,300508,1.1,E,A*28,,,,,,,
$GPGGA,140110,4454.174,N,9325.0143,W,1,9,1.1,289.8,M,-30.7,M,,*58,,,,,
$GPGSA,A,3,21,15,18,24,26,29,6,22,,3,,,2,1.1,01.7*04,,
$GPGSV,3,1,12,21,75,306,39,15,59,75,46,18,57,269,49,24,56,115,46*77
$GPGSV,3,2,12,26,48,59,42,29,26,188,48,6,25,308,41,22,18,257,33*7D
$GPGSV,3,3,12,8,14,60,,3,12,320,33,9,6,144,,16,4,311,*7E
$GPRMC,140111,A,4454.174,N,9325.0143,W,0,128.7,300508,1.1,E,A*29,,,,,,,
$GPGGA,140111,4454.174,N,9325.0143,W,1,9,1.1,289.8,M,-30.7,M,,*59,,,,,
$GPGSA,A,3,21,15,18,24,26,29,6,22,,3,,,2,1.1,01.7*04,,
$GPGSV,3,1,12,21,75,306,39,15,59,75,46,18,57,269,49,24,56,115,46*77
$GPGSV,3,2,12,26,48,59,42,29,26,188,48,6,25,308,41,22,18,257,33*7D
$GPGSV,3,3,12,8,14,60,,3,12,320,33,9,6,144,,16,4,311,*7E
$GPRMC,140112,A,4454.174,N,9325.0143,W,0,128.7,300508,1.1,E,A*2A,,,,,,,
$GPGGA,140112,4454.174,N,9325.0143,W,1,9,1.1,289.8,M,-30.7,M,,*5A,,,,,
$GPGSA,A,3,21,15,18,24,26,29,6,22,,3,,,2,1.1,01.7*04,,
$GPGSV,3,1,12,21,75,306,39,15,59,75,46,18,57,269,49,24,56,115,46*77
$GPGSV,3,2,12,26,48,59,42,29,26,188,48,6,25,308,41,22,18,257,33*7D
$GPGSV,3,3,12,8,14,60,,3,12,320,33,9,6,144,,16,4,311,*7E
$GPRMC,140113,A,4454.174,N,9325.0143,W,0,128.7,300508,1.1,E,A*2B,,,,,,,
$GPGGA,140113,4454.174,N,9325.0143,W,1,9,1.1,289.8,M,-30.7,M,,*5B,,,,,
$GPGSA,A,3,21,15,18,24,26,29,6,22,,3,,,2,1.1,01.7*04,,
$GPGSV,3,1,12,21,75,306,39,15,59,75,46,18,57,269,49,24,56,115,46*77
$GPGSV,3,2,12,26,48,59,42,29,26,188,48,6,25,308,41,22,18,257,32*7C
$GPGSV,3,3,12,8,14,60,,3,12,320,33,9,6,144,,16,4,311,*7E
$GPRMC,140114,A,4454.174,N,9325.0143,W,0,128.7,300508,1.1,E,A*2C,,,,,,,
$GPGGA,140114,4454.174,N,9325.0143,W,1,9,1.1,289.8,M,-30.7,M,,*5C,,,,,
$GPGSA,A,3,21,15,18,24,26,29,6,22,,3,,,2,1.1,01.7*04,,
$GPGSV,3,1,12,21,75,306,39,15,59,75,46,18,57,269,49,24,56,115,46*77
$GPGSV,3,2,12,26,48,59,42,29,26,188,48,6,25,308,41,22,18,257,32*7C
$GPGSV,3,3,12,8,14,60,,3,12,320,33,9,6,144,,16,4,311,*7E
$GPRMC,140115,A,4454.174,N,9325.0143,W,0,128.7,300508,1.1,E,A*2D,,,,,,,
$GPGGA,140115,4454.174,N,9325.0143,W,1,9,1.1,289.8,M,-30.7,M,,*5D,,,,,
$GPGSA,A,3,21,15,18,24,26,29,6,22,,3,,,2,1.1,01.7*04,,
$GPGSV,3,1,12,21,75,306,39,15,59,75,46,18,57,269,49,24,56,115,46*77
$GPGSV,3,2,12,26,48,59,42,29,26,188,48,6,25,308,41,22,18,257,32*7C
$GPGSV,3,3,12,8,14,60,,3,12,320,33,9,6,144,,16,4,311,*7E
$GPRMC,140116,A,4454.174,N,9325.0143,W,0.1,128.7,300508,1.1,E,A*2F,,,,,,,
$GPGGA,140116,4454.174,N,9325.0143,W,1,9,1.1,289.8,M,-30.7,M,,*5E,,,,,
$GPGSA,A,3,21,15,18,24,26,29,6,22,,3,,,2,1.1,01.7*04,,
$GPGSV,3,1,12,21,75,306,39,15,59,75,46,18,57,269,49,24,56,115,46*77
$GPGSV,3,2,12,26,48,59,42,29,26,188,48,6,25,308,41,22,18,257,31*7F
$GPGSV,3,3,12,8,14,60,,3,12,320,33,9,6,144,,16,4,311,*7E
$GPRMC,140117,A,4454.174,N,9325.0143,W,0,128.7,300508,1.1,E,A*2F,,,,,,,
$GPGGA,140117,4454.174,N,9325.0143,W,1,9,1.1,289.8,M,-30.7,M,,*5F,,,,,
$GPGSA,A,3,21,15,18,24,26,29,6,22,,3,,,2,1.1,01.7*04,,
$GPGSV,3,1,12,21,75,306,39,15,59,75,46,18,57,269,49,24,56,115,46*77
$GPGSV,3,2,12,26,48,59,42,29,26,188,48,6,25,308,40,22,18,257,32*7D
$GPGSV,3,3,12,8,14,60,,3,12,320,34,9,6,144,,16,4,311,*79
$GPRMC,140118,A,4454.174,N,9325.0143,W,0.1,128.7,300508,1.1,E,A*21,,,,,,,
$GPGGA,140118,4454.174,N,9325.0143,W,1,9,1.1,289.8,M,-30.7,M,,*50,,,,,
$GPGSA,A,3,21,15,18,24,26,29,6,22,,3,,,2,1.1,01.7*04,,
$GPGSV,3,1,12,21,75,306,39,15,59,75,46,18,57,269,49,24,56,115,46*77
$GPGSV,3,2,12,26,48,59,42,29,26,188,48,6,25,308,40,22,18,257,33*7C
$GPGSV,3,3,12,8,14,60,,3,12,320,34,9,6,144,,16,4,311,*79
$GPRMC,140119,A,4454.174,N,9325.0143,W,0.1,128.7,300508,1.1,E,A*20,,,,,,,
$GPGGA,140119,4454.174,N,9325.0143,W,1,9,1.1,289.8,M,-30.7,M,,*51,,,,,
$GPGSA,A,3,21,15,18,24,26,29,6,22,,3,,,2,1.1,01.7*04,,
$GPGSV,3,1,12,21,75,306,39,15,59,75,46,18,57,269,49,24,56,115,45*74
$GPGSV,3,2,12,26,48,59,41,29,26,188,47,6,25,308,40,22,18,257,34*77
$GPGSV,3,3,12,8,14,60,,3,12,320,35,9,6,144,,16,4,311,*78
$GPRMC,140120,A,4454.174,N,9325.0143,W,0,128.7,300508,1.1,E,A*2B,,,,,,,
$GPGGA,140120,4454.174,N,9325.0143,W,1,9,1.1,289.8,M,-30.7,M,,*5B,,,,,
$GPGSA,A,3,21,15,18,24,26,29,6,22,,3,,,2,1.1,01.7*04,,
$GPGSV,3,1,12,21,75,306,39,15,59,75,46,18,57,269,49,24,56,115,44*75
$GPGSV,3,2,12,26,48,59,41,29,26,188,47,6,25,308,40,22,18,257,34*77
$GPGSV,3,3,12,8,14,60,,3,12,320,35,9,6,144,,16,4,311,*78
$GPRMC,140121,A,4454.174,N,9325.0143,W,0,128.7,300508,1.1,E,A*2A,,,,,,,
$GPGGA,140121,4454.174,N,9325.0143,W,1,9,1.1,289.8,M,-30.7,M,,*5A,,,,,
$GPGSA,A,3,21,15,18,24,26,29,6,22,,3,,,2,1.1,01.7*04,,
$GPGSV,3,1,12,21,75,306,39,15,59,75,46,18,57,269,49,24,56,115,44*75
$GPGSV,3,2,12,26,48,59,41,29,26,188,47,6,25,308,40,22,18,257,35*76
$GPGSV,3,3,12,8,14,60,,3,12,320,35,9,6,144,,16,4,311,*78
$GPRMC,140122,A,4454.174,N,9325.0143,W,0,128.7,300508,1.1,E,A*29,,,,,,,
$GPGGA,140122,4454.174,N,9325.0143,W,1,9,1.1,289.8,M,-30.7,M,,*59,,,,,
$GPGSA,A,3,21,15,18,24,26,29,6,22,,3,,,2,1.1,01.7*04,,
$GPGSV,3,1,12,21,75,306,39,15,59,75,46,18,57,269,49,24,56,115,44*75
$GPGSV,3,2,12,26,48,59,41,29,26,188,47,6,25,308,40,22,18,257,36*75
$GPGSV,3,3,12,8,14,60,,3,12,320,35,9,6,144,,16,4,310,*79
$GPRMC,140123,A,4454.174,N,9325.0143,W,0,128.7,300508,1.1,E,A*28,,,,,,,
$GPGGA,140123,4454.174,N,9325.0143,W,1,9,1.1,289.8,M,-30.7,M,,*58,,,,,
$GPGSA,A,3,21,15,18,24,26,29,6,22,,3,,,2,1.1,01.7*04,,
$GPGSV,3,1,12,21,75,306,39,15,59,75,46,18,57,269,49,24,56,115,44*75
$GPGSV,3,2,12,26,48,59,41,29,26,188,47,6,25,308,40,22,18,257,36*75
$GPGSV,3,3,12,8,14,60,,3,12,320,35,9,6,144,,16,4,310,*79
$GPRMC,140124,A,4454.174,N,9325.0143,W,0,128.7,300508,1.1,E,A*2F,,,,,,,
$GPGGA,140124,4454.174,N,9325.0143,W,1,9,1.1,289.8,M,-30.7,M,,*5F,,,,,
$GPGSA,A,3,21,15,18,24,26,29,6,22,,3,,,2,1.1,01.7*04,,
$GPGSV,3,1,12,21,75,306,39,15,59,75,46,18,57,269,49,24,56,115,44*75
$GPGSV,3,2,12,26,48,59,41,29,26,188,47,6,25,308,40,22,18,257,36*75
$GPGSV,3,3,12,8,14,60,,3,12,320,35,9,6,144,,16,4,310,*79
$GPRMC,140125,A,4454.174,N,9325.0143,W,0,128.7,300508,1.1,E,A*2E,,,,,,,
$GPGGA,140125,4454.174,N,9325.0143,W,1,9,1.1,289.8,M,-30.7,M,,*5E,,,,,
$GPGSA,A,3,21,15,18,24,26,29,6,22,,3,,,2,1.1,01.7*04,,
$GPGSV,3,1,12,21,75,306,39,15,59,75,46,18,57,269,49,24,56,115,44*75
$GPGSV,3,2,12,26,48,59,40,29,26,188,47,6,25,308,40,22,18,257,36*74
$GPGSV,3,3,12,8,14,60,,3,12,320,35,9,6,144,,16,4,310,*79
$GPRMC,140126,A,4454.174,N,9325.0143,W,0,128.7,300508,1.1,E,A*2D,,,,,,,
$GPGGA,140126,4454.174,N,9325.0143,W,1,9,1.1,289.8,M,-30.7,M,,*5D,,,,,
$GPGSA,A,3,21,15,18,24,26,29,6,22,,3,,,2,1.1,01.7*04,,
$GPGSV,3,1,12,21,75,306,39,15,59,75,46,18,57,269,49,24,56,115,44*75
$GPGSV,3,2,12,26,48,59,41,29,26,188,47,6,25,308,40,22,18,257,36*75
$GPGSV,3,3,12,8,14,60,,3,12,320,35,9,6,144,,16,4,310,*79
$GPRMC,140127,A,4454.174,N,9325.0143,W,0,128.7,300508,1.1,E,A*2C,,,,,,,
$GPGGA,140127,4454.174,N,9325.0143,W,1,9,1.1,289.8,M,-30.7,M,,*5C,,,,,
$GPGSA,A,3,21,15,18,24,26,29,6,22,,3,,,2,1.1,01.7*04,,
$GPGSV,3,1,12,21,75,306,39,15,59,75,46,18,57,269,49,24,56,115,44*75
$GPGSV,3,2,12,26,48,59,41,29,26,188,47,6,25,308,40,22,18,257,36*75
$GPGSV,3,3,12,8,14,60,,3,12,320,34,9,6,144,,16,4,310,*78
$GPRMC,140128,A,4454.174,N,9325.0143,W,0,128.7,300508,1.1,E,A*23,,,,,,,
$GPGGA,140128,4454.174,N,9325.0143,W,1,9,1.1,289.8,M,-30.7,M,,*53,,,,,
$GPGSA,A,3,21,15,18,24,26,29,6,22,,3,,,2,1.1,01.7*04,,
$GPGSV,3,1,12,21,75,306,38,15,59,75,46,18,57,269,49,24,56,115,44*74
$GPGSV,3,2,12,26,48,59,41,29,26,188,47,6,25,308,40,22,18,257,36*75
$GPGSV,3,3,12,8,14,60,,3,12,320,34,9,6,144,,16,4,310,*78
$GPRMC,140129,A,4454.174,N,9325.0143,W,0,128.7,300508,1.1,E,A*22,,,,,,,
$GPGGA,140129,4454.174,N,9325.0143,W,1,9,1.1,289.8,M,-30.7,M,,*52,,,,,
$GPGSA,A,3,21,15,18,24,26,29,6,22,,3,,,2,1.1,01.7*04,,
$GPGSV,3,1,12,21,75,306,38,15,59,75,46,18,57,269,49,24,56,116,43*70
$GPGSV,3,2,12,26,48,59,41,29,26,188,47,6,25,308,40,22,18,257,36*75
$GPGSV,3,3,12,8,14,60,,3,12,320,34,9,6,144,,16,4,310,*78
$GPRMC,140130,A,4454.174,N,9325.0143,W,0,128.7,300508,1.1,E,A*2A,,,,,,,
$GPGGA,140130,4454.174,N,9325.0143,W,1,9,1.1,289.8,M,-30.7,M,,*5A,,,,,
$GPGSA,A,3,21,15,18,24,26,29,6,22,,3,,,2,1.1,01.7*04,,
$GPGSV,3,1,12,21,75,306,37,15,59,75,46,18,57,269,49,24,56,116,43*7F
$GPGSV,3,2,12,26,48,59,41,29,26,188,46,6,25,308,40,22,18,257,36*74
$GPGSV,3,3,12,8,14,60,,3,12,320,34,9,6,144,,16,4,310,*78
$GPRMC,140131,A,4454.174,N,9325.0143,W,0,128.7,300508,1.1,E,A*2B,,,,,,,
$GPGGA,140131,4454.174,N,9325.0143,W,1,9,1.1,289.8,M,-30.7,M,,*5B,,,,,
$GPGSA,A,3,21,15,18,24,26,29,6,22,,3,,,2,1.1,01.7*04,,
$GPGSV,3,1,12,21,75,306,37,15,59,75,46,18,57,269,49,24,56,116,43*7F
$GPGSV,3,2,12,26,48,58,41,29,26,188,46,6,25,308,40,22,18,257,37*74
$GPGSV,3,3,12,8,14,60,,3,12,320,34,9,6,144,,16,4,310,*78
$GPRMC,140132,A,4454.174,N,9325.0143,W,0.3,128.7,300508,1.1,E,A*2B,,,,,,,
$GPGGA,140132,4454.174,N,9325.0143,W,1,9,1.1,289.8,M,-30.7,M,,*58,,,,,
$GPGSA,A,3,21,15,18,24,26,29,6,22,,3,,,2,1.1,01.7*04,,
$GPGSV,3,1,12,21,75,306,38,15,59,75,45,18,57,269,49,24,56,116,42*72
$GPGSV,3,2,12,26,48,58,41,29,26,188,46,6,25,308,40,22,18,257,38*7B
$GPGSV,3,3,12,8,14,60,,3,12,320,35,9,6,144,,16,4,310,*79
$GPRMC,140133,A,4454.174,N,9325.0143,W,0.5,94.2,300508,1.1,E,A*2F,,,,,,,
$GPGGA,140133,4454.174,N,9325.0143,W,1,9,1.1,289.8,M,-30.7,M,,*59,,,,,
$GPGSA,A,3,21,15,18,24,26,29,6,22,,3,,,2,1.1,01.7*04,,
$GPGSV,3,1,12,21,75,306,38,15,59,75,45,18,57,269,49,24,56,116,42*72
$GPGSV,3,2,12,26,48,58,42,29,26,188,46,6,25,308,40,22,18,257,38*78
$GPGSV,3,3,12,8,14,60,,3,12,320,36,9,6,144,,16,4,310,*7A
$GPRMC,140134,A,4454.174,N,9325.0143,W,1,66.2,300508,1.1,E,A*21,,,,,,,
$GPGGA,140134,4454.174,N,9325.0143,W,1,9,1.1,289.8,M,-30.7,M,,*5E,,,,,
$GPGSA,A,3,21,15,18,24,26,29,6,22,,3,,,2,1.1,01.7*04,,
$GPGSV,3,1,12,21,75,306,38,15,59,75,45,18,57,269,49,24,56,116,42*72
$GPGSV,3,2,12,26,48,58,42,29,26,188,45,6,25,308,40,22,18,257,37*74
$GPGSV,3,3,12,8,14,60,,3,12,320,36,9,6,144,,16,4,310,*7A
$GPRMC,140135,A,4454.174,N,9325.0143,W,1.6,43.7,300508,1.1,E,A*24,,,,,,,
$GPGGA,140135,4454.174,N,9325.0143,W,1,9,1.1,289.8,M,-30.7,M,,*5F,,,,,
$GPGSA,A,3,21,15,18,24,26,29,6,22,,3,,,2,1.1,01.7*04,,
$GPGSV,3,1,12,21,75,306,38,15,59,75,45,18,57,269,49,24,56,116,43*73
$GPGSV,3,2,12,26,48,58,42,29,26,188,44,6,25,308,40,22,18,257,36*74
$GPGSV,3,3,12,8,14,60,,3,12,320,36,9,6,144,,16,4,310,*7A
$GPRMC,140136,A,4454.174,N,9325.0143,W,2.1,25.7,300508,1.1,E,A*23,,,,,,,
$GPGGA,140136,4454.174,N,9325.0143,W,1,9,1.1,289.8,M,-30.7,M,,*5C,,,,,
$GPGSA,A,3,21,15,18,24,26,29,6,22,,3,,,2,1.1,01.7*04,,
$GPGSV,3,1,12,21,75,306,39,15,59,75,45,18,57,269,49,24,56,116,43*72
$GPGSV,3,2,12,26,48,58,42,29,26,188,44,6,25,308,40,22,18,257,36*74
$GPGSV,3,3,12,8,14,60,,3,12,320,36,9,6,144,,16,4,310,*7A
$GPRMC,140137,A,4454.1739,N,9325.0162,W,2.1,11.3,300508,1.1,E,A*2C,,,,,,,
$GPGGA,140137,4454.1739,N,9325.0162,W,1,9,1.1,294.7,M,-30.7,M,,*53,,,,,
$GPGSA,A,3,21,15,18,24,26,29,6,22,,3,,,2,1.1,01.7*04,,
$GPGSV,3,1,12,21,75,306,39,15,59,75,44,18,57,269,49,24,56,116,43*73
$GPGSV,3,2,12,26,48,58,42,29,26,188,44,6,25,308,40,22,18,257,36*74
$GPGSV,3,3,12,8,14,60,,3,12,320,36,9,6,144,,16,4,310,*7A
$GPRMC,140138,A,4454.1743,N,9325.0169,W,2.1,342.6,300508,1.1,E,A*25,,,,,,,
$GPGGA,140138,4454.1743,N,9325.0169,W,1,9,1.1,295.6,M,-30.7,M,,*5A,,,,,
$GPGSA,A,3,21,15,18,24,26,29,6,22,,3,,,2,1.1,01.7*04,,
$GPGSV,3,1,12,21,75,306,39,15,59,75,44,18,57,269,49,24,56,116,43*73
$GPGSV,3,2,12,26,48,58,42,29,26,188,44,6,25,308,40,22,18,257,36*74
$GPGSV,3,3,12,8,14,60,,3,12,320,36,9,6,144,,16,4,310,*7A
$GPRMC,140139,A,4454.1746,N,9325.0176,W,2.1,328.2,300508,1.1,E,A*27,,,,,,,
$GPGGA,140139,4454.1746,N,9325.0176,W,1,9,1.1,295.9,M,-30.7,M,,*5F,,,,,
$GPGSA,A,3,21,15,18,24,26,29,6,22,,3,,,2,1.1,01.7*04,,
$GPGSV,3,1,12,21,75,306,39,15,59,75,44,18,57,269,49,24,56,116,43*73
$GPGSV,3,2,12,26,48,58,42,29,26,188,44,6,25,308,41,22,18,257,36*75
$GPGSV,3,3,12,8,14,60,,3,12,320,36,9,6,144,,16,4,310,*7A
$GPRMC,140140,A,4454.1749,N,9325.0182,W,2.1,321.2,300508,1.1,E,A*24,,,,,,,
$GPGGA,140140,4454.1749,N,9325.0182,W,1,9,1.1,295.8,M,-30.7,M,,*54,,,,,
$GPGSA,A,3,21,15,18,24,26,29,6,22,,3,,,2,1.1,01.7*04,,
$GPGSV,3,1,12,21,75,306,38,15,59,75,44,18,57,269,49,24,56,116,43*72
$GPGSV,3,2,12,26,48,58,42,29,26,188,45,6,25,308,41,22,18,257,35*77
$GPGSV,3,3,12,8,14,60,,3,12,320,35,9,6,144,,16,4,310,*79
$GPRMC,140141,A,4454.1752,N,9325.019,W,2.2,318.1,300508,1.1,E,A*26,,,,,,,
$GPGGA,140141,4454.1752,N,9325.019,W,1,8,1.2,295.7,M,-30.7,M,,*51,,,,,
$GPGSA,A,3,21,15,18,24,26,29,6,,,3,,,2.1,1.2,01.7*06,,
$GPGSV,3,1,12,21,75,306,38,15,59,75,44,18,57,269,49,24,56,116,43*72
$GPGSV,3,2,12,26,48,58,42,29,26,188,44,6,25,308,41,22,18,257,34*77
$GPGSV,3,3,12,8,14,60,,3,12,320,34,9,6,144,,16,4,310,*78
$GPRMC,140142,A,4454.176,N,9325.0197,W,2.4,316.7,300508,1.1,E,A*2D,,,,,,,
$GPGGA,140142,4454.176,N,9325.0197,W,1,8,1.2,296.3,M,-30.7,M,,*53,,,,,
$GPGSA,A,3,21,15,18,24,26,29,6,22,,,,,2.4,1.2,02.0*04,,
$GPGSV,3,1,12,21,75,306,39,15,59,75,43,18,57,269,49,24,56,116,42*75
$GPGSV,3,2,12,26,48,58,42,29,26,188,45,6,25,308,39,22,18,257,32*7F
$GPGSV,3,3,12,8,14,60,,3,12,320,32,9,6,144,,16,4,310,*7E
$GPRMC,140143,A,4454.1767,N,9325.0211,W,2.5,314.7,300508,1.1,E,A*25,,,,,,,
$GPGGA,140143,4454.1767,N,9325.0211,W,1,9,1.1,296.9,M,-30.7,M,,*50,,,,,
$GPGSA,A,3,21,15,18,24,26,29,6,22,,3,,,2,1.1,01.7*04,,
$GPGSV,3,1,12,21,75,306,40,15,59,75,43,18,57,269,48,24,56,116,41*79
$GPGSV,3,2,12,26,48,58,41,29,26,188,45,6,25,308,38,22,18,257,33*7C
$GPGSV,3,3,12,8,14,60,,3,12,320,32,9,6,144,,16,4,310,*7E
$GPRMC,140144,A,4454.1773,N,9325.0225,W,3.5,306.3,300508,1.1,E,A*26,,,,,,,
$GPGGA,140144,4454.1773,N,9325.0225,W,1,9,1.1,297.2,M,-30.7,M,,*5F,,,,,
$GPGSA,A,3,21,15,18,24,26,29,6,22,,3,,,2,1.1,01.7*04,,
$GPGSV,3,1,12,21,75,306,40,15,59,75,43,18,57,269,46,24,56,116,41*77
$GPGSV,3,2,12,26,48,58,41,29,26,188,46,6,25,308,37,22,18,257,35*76
$GPGSV,3,3,12,8,14,60,,3,12,320,34,9,6,144,,16,4,310,*78
$GPRMC,140145,A,4454.1773,N,9325.0243,W,3.5,294.9,300508,1.1,E,A*27,,,,,,,
$GPGGA,140145,4454.1773,N,9325.0243,W,1,9,1.1,297.2,M,-30.7,M,,*5E,,,,,
$GPGSA,A,3,21,15,18,24,26,29,6,22,,3,,,2,1.1,01.7*04,,
$GPGSV,3,1,12,21,75,306,40,15,59,75,42,18,57,269,45,24,56,116,42*76
$GPGSV,3,2,12,26,48,58,40,29,26,188,45,6,25,308,37,22,18,257,36*77
$GPGSV,3,3,12,8,14,60,,3,12,320,36,9,6,144,,16,4,310,*7A
$GPRMC,140146,A,4454.1772,N,9325.0256,W,3.3,283.2,300508,1.1,E,A*2A,,,,,,,
$GPGGA,140146,4454.1772,N,9325.0256,W,1,9,1.1,297,M,-30.7,M,,*5A,,,,,
$GPGSA,A,3,21,15,18,24,26,29,6,22,,3,,,2,1.1,01.7*04,,
$GPGSV,3,1,12,21,75,306,41,15,59,75,40,18,57,269,45,24,56,116,44*73
$GPGSV,3,2,12,26,48,58,38,29,26,188,44,6,25,308,39,22,18,257,37*76
$GPGSV,3,3,12,8,14,60,,3,12,320,37,9,6,144,,16,4,310,*7B
$GPRMC,140147,A,4454.1772,N,9325.0263,W,0.9,269.3,300508,1.1,E,A*21,,,,,,,
$GPGGA,140147,4454.1772,N,9325.0263,W,1,9,1.1,297.4,M,-30.7,M,,*59,,,,,
$GPGSA,A,3,21,15,18,24,26,29,6,22,,3,,,2,1.1,01.7*04,,
$GPGSV,3,1,12,21,75,306,42,15,59,75,40,18,57,269,46,24,56,116,45*72
$GPGSV,3,2,12,26,48,58,37,29,26,188,44,6,25,307,41,22,18,257,36*78
$GPGSV,3,3,12,8,14,60,,3,12,320,37,9,6,144,30,16,4,310,*78
$GPRMC,140148,A,4454.1772,N,9325.0263,W,0.5,263.1,300508,1.1,E,A*2A,,,,,,,
$GPGGA,140148,4454.1772,N,9325.0263,W,1,9,1.1,297.4,M,-30.7,M,,*56,,,,,
$GPGSA,A,3,21,15,18,24,26,29,6,22,,3,,,2,1.1,01.7*04,,
$GPGSV,3,1,12,21,75,306,43,15,59,75,40,18,57,269,47,24,56,116,46*71
$GPGSV,3,2,12,26,48,58,36,29,26,188,44,6,25,307,42,22,18,257,36*7A
$GPGSV,3,3,12,8,14,60,,3,12,320,37,9,6,144,30,16,4,310,*78
$GPRMC,140149,A,4454.1772,N,9325.0263,W,0.2,263.1,300508,1.1,E,A*2C,,,,,,,
$GPGGA,140149,4454.1772,N,9325.0263,W,1,9,1.1,297.4,M,-30.7,M,,*57,,,,,
$GPGSA,A,3,21,15,18,24,26,29,6,22,,3,,,2,1.1,01.7*04,,
$GPGSV,3,1,12,21,75,306,44,15,59,75,41,18,57,269,47,24,56,116,46*77
$GPGSV,3,2,12,26,48,58,36,29,26,188,44,6,25,307,42,22,18,257,35*79
$GPGSV,3,3,12,8,3,23,,3,12,320,37,9,6,144,29,16,4,310,*71
$GPRMC,140150,A,4454.1772,N,9325.0263,W,0.1,263.1,300508,1.1,E,A*27,,,,,,,
$GPGGA,140150,4454.1772,N,9325.0263,W,1,9,1.1,297.4,M,-30.7,M,,*5F,,,,,
$GPGSA,A,3,21,15,18,24,26,29,6,22,,3,,,2,1.1,01.7*04,,
$GPGSV,3,1,12,21,75,306,44,15,59,75,42,18,57,269,47,24,56,116,46*74
$GPGSV,3,2,12,26,48,58,36,29,26,188,44,6,25,307,42,22,18,257,34*78
$GPGSV,3,3,12,8,3,23,,3,12,320,38,9,7,144,29,16,4,310,*7F
$GPRMC,140151,A,4454.1772,N,9325.0263,W,0.7,290.7,300508,1.1,E,A*2A,,,,,,,
$GPGGA,140151,4454.1772,N,9325.0263,W,1,9,1.1,297.4,M,-30.7,M,,*5E,,,,,
$GPGSA,A,3,21,15,18,24,26,29,6,22,3,,,,2,1.1,01.7*04,,
$GPGSV,3,1,12,21,75,306,44,15,59,75,42,18,57,269,47,24,56,116,46*74
$GPGSV,3,2,12,26,48,58,36,29,26,188,44,6,25,307,43,22,18,257,33*7E
$GPGSV,3,3,12,3,12,320,40,9,7,144,35,16,4,310,,8,3,23,*7D
$GPRMC,140152,A,4454.1772,N,9325.0263,W,1.7,308.9,300508,1.1,E,A*26,,,,,,,
$GPGGA,140152,4454.1772,N,9325.0263,W,1,9,1.1,297.4,M,-30.7,M,,*5D,,,,,
$GPGSA,A,3,21,15,18,24,26,29,6,22,3,,,,2,1.1,01.7*04,,
$GPGSV,3,1,12,21,75,306,44,15,59,75,43,18,57,269,47,24,56,116,45*76
$GPGSV,3,2,12,26,48,58,37,29,26,188,42,6,25,307,43,22,18,257,33*79
$GPGSV,3,3,12,3,12,320,39,9,7,144,35,16,4,310,,8,3,23,*73
$GPRMC,140153,A,4454.1772,N,9325.0263,W,2.4,340.9,300508,1.1,E,A*2B,,,,,,,
$GPGGA,140153,4454.1772,N,9325.0263,W,1,9,1.1,297.4,M,-30.7,M,,*5C,,,,,
$GPGSA,A,3,21,15,18,24,26,29,6,22,3,,,,2,1.1,01.7*04,,
$GPGSV,3,1,12,21,75,306,44,15,59,75,44,18,57,269,46,24,56,116,45*70
$GPGSV,3,2,12,26,48,58,38,29,26,188,41,6,25,307,41,22,18,257,35*71
$GPGSV,3,3,12,3,12,320,38,9,7,144,33,16,4,310,,8,3,23,*74
$GPRMC,140154,A,4454.1804,N,9325.0255,W,5.1,350.1,300508,1.1,E,A*2C,,,,,,,
$GPGGA,140154,4454.1804,N,9325.0255,W,1,9,1.1,298.6,M,-30.7,M,,*5D,,,,,
$GPGSA,A,3,21,15,18,24,26,29,6,22,3,,,,2,1.1,01.7*04,,
$GPGSV,3,1,12,21,75,306,44,15,59,75,43,18,57,269,45,24,56,116,46*77
$GPGSV,3,2,12,26,48,58,41,29,26,188,40,6,25,307,41,22,18,257,38*73
$GPGSV,3,3,12,3,12,320,37,9,7,144,34,16,4,310,,8,3,23,*7C
$GPRMC,140155,A,4454.1825,N,9325.026,W,5.6,344.5,300508,1.1,E,A*2E,,,,,,,
$GPGGA,140155,4454.1825,N,9325.026,W,1,9,1.1,298.5,M,-30.7,M,,*5A,,,,,
$GPGSA,A,3,21,15,18,24,26,29,6,22,3,,,,2,1.1,01.7*04,,
$GPGSV,3,1,12,21,75,306,45,15,59,75,43,18,57,269,45,24,56,116,47*77
$GPGSV,3,2,12,26,48,58,42,29,26,188,41,6,25,307,39,22,18,257,38*7E
$GPGSV,3,3,12,3,12,320,37,9,7,144,35,16,4,310,,8,3,23,*7D
$GPRMC,140156,A,4454.185,N,9325.0275,W,10.4,338.6,300508,1.1,E,A*25,,,,,,,
$GPGGA,140156,4454.185,N,9325.0275,W,1,8,1.2,298.3,M,-30.7,M,,*5B,,,,,
$GPGSA,A,3,21,15,18,24,26,29,6,22,,,,,2.4,1.2,02.0*04,,
$GPGSV,3,1,12,21,75,306,45,15,59,74,44,18,57,269,45,24,56,116,47*71
$GPGSV,3,2,12,26,48,58,44,29,26,188,40,6,25,307,39,22,18,257,39*78
$GPGSV,3,3,12,3,12,320,36,9,7,144,34,16,4,310,,8,3,23,*7D
$GPRMC,140157,A,4454.1878,N,9325.0298,W,10.8,333.6,300508,1.1,E,A*2A,,,,,,,
$GPGGA,140157,4454.1878,N,9325.0298,W,1,9,1.1,297.7,M,-30.7,M,,*5A,,,,,
$GPGSA,A,3,21,15,18,24,26,29,6,22,3,,,,2,1.1,01.7*04,,
$GPGSV,3,1,12,21,75,306,45,15,59,74,44,18,57,269,45,24,56,116,47*71
$GPGSV,3,2,12,26,48,58,45,29,26,188,38,6,25,307,39,22,18,257,39*76
$GPGSV,3,3,12,3,12,320,38,9,7,144,33,16,4,310,,8,3,23,*74
$GPRMC,140158,A,4454.1905,N,9325.0321,W,11.2,330.8,300508,1.1,E,A*2B,,,,,,,
$GPGGA,140158,4454.1905,N,9325.0321,W,1,8,1.5,297.4,M,-30.7,M,,*5B,,,,,
$GPGSA,A,3,21,15,18,24,26,,6,22,3,,,,2.5,1.5,02.0*0A,,
$GPGSV,3,1,12,21,75,306,45,15,59,74,44,18,57,269,45,24,56,116,47*71
$GPGSV,3,2,12,26,48,58,46,29,26,188,35,6,25,307,40,22,18,257,38*77
$GPGSV,3,3,12,3,12,320,39,9,7,144,32,16,4,310,,8,3,23,*74
$GPRMC,140159,A,4454.1932,N,9325.0344,W,11.1,329.2,300508,1.1,E,A*2C,,,,,,,
$GPGGA,140159,4454.1932,N,9325.0344,W,1,8,1.5,296.7,M,-30.7,M,,*5F,,,,,
$GPGSA,A,3,21,15,18,24,26,,6,22,3,,,,2.5,1.5,02.0*0A,,
$GPGSV,3,1,12,21,75,306,45,15,59,74,44,18,57,269,45,24,56,116,47*71
$GPGSV,3,2,12,26,48,58,47,29,26,188,32,6,25,307,41,22,18,257,38*70
$GPGSV,3,3,12,3,12,320,40,9,7,144,32,16,4,310,,8,3,23,*7A
$GPRMC,140200,A,4454.1956,N,9325.0368,W,11,328.3,300508,1.1,E,A*2E,,,,,,,
$GPGGA,140200,4454.1956,N,9325.0368,W,1,8,1.5,296,M,-30.7,M,,*5B,,,,,
$GPGSA,A,3,21,15,18,24,26,,6,22,3,,,,2.5,1.5,02.0*0A,,
$GPGSV,3,1,12,21,75,306,45,15,59,74,43,18,57,269,45,24,56,116,47*76
$GPGSV,3,2,12,26,48,58,47,29,26,188,30,6,25,307,41,22,18,257,38*72
$GPGSV,3,3,12,3,12,320,41,9,7,144,33,16,4,310,,8,3,23,*7A
$GPRMC,140201,A,4454.1979,N,9325.039,W,10.9,327.8,300508,1.1,E,A*29,,,,,,,
$GPGGA,140201,4454.1979,N,9325.039,W,1,8,1.5,295.5,M,-30.7,M,,*56,,,,,
$GPGSA,A,3,21,15,18,24,26,,6,22,3,,,,2.5,1.5,02.0*0A,,
$GPGSV,3,1,12,21,75,306,45,15,59,74,43,18,57,269,45,24,56,116,47*76
$GPGSV,3,2,12,26,48,58,47,29,26,188,28,6,25,307,41,22,18,257,38*7B
$GPGSV,3,3,12,3,12,320,42,9,7,144,33,16,4,310,,8,3,23,*79
$GPRMC,140202,A,4454.201,N,9325.0419,W,9.9,327.3,300508,1.1,E,A*2A,,,,,,,
$GPGGA,140202,4454.201,N,9325.0419,W,1,9,1.1,296.9,M,-30.7,M,,*5C,,,,,
$GPGSA,A,3,21,15,18,24,26,29,6,22,3,,,,2,1.1,01.7*04,,
$GPGSV,3,1,12,21,75,306,45,15,59,74,43,18,57,269,45,24,56,116,47*76
$GPGSV,3,2,12,26,48,58,48,29,26,188,30,6,25,307,41,22,18,257,38*7D
$GPGSV,3,3,12,3,12,320,42,9,7,144,33,16,4,310,,8,3,23,*79
$GPRMC,140203,A,4454.2031,N,9325.044,W,9.1,324.6,300508,1.1,E,A*2A,,,,,,,
$GPGGA,140203,4454.2031,N,9325.044,W,1,9,1.1,297.4,M,-30.7,M,,*5E,,,,,
$GPGSA,A,3,21,15,18,24,26,29,6,22,3,,,,2,1.1,01.7*04,,
$GPGSV,3,1,12,21,75,306,45,15,59,74,43,18,57,269,45,24,56,116,47*76
$GPGSV,3,2,12,26,48,58,48,29,26,188,33,6,25,307,41,22,18,257,38*7E
$GPGSV,3,3,12,3,12,320,41,9,7,144,34,16,4,310,,8,3,23,*7D
$GPRMC,140204,A,4454.2044,N,9325.0464,W,8.6,313,300508,1.1,E,A*2D,,,,,,,
$GPGGA,140204,4454.2044,N,9325.0464,W,1,9,1.1,297.3,M,-30.7,M,,*5A,,,,,
$GPGSA,A,3,21,15,18,24,26,29,6,22,3,,,,2,1.1,01.7*04,,
$GPGSV,3,1,12,21,75,306,45,15,59,74,44,18,57,269,44,24,55,116,46*72
$GPGSV,3,2,12,26,48,58,49,29,26,188,37,6,25,307,41,22,18,257,38*7B
$GPGSV,3,3,12,3,12,320,40,9,7,144,32,16,4,310,,8,3,23,*7A
$GPRMC,140205,A,4454.2048,N,9325.0495,W,8.7,292.2,300508,1.1,E,A*25,,,,,,,
$GPGGA,140205,4454.2048,N,9325.0495,W,1,9,1.1,296.8,M,-30.7,M,,*53,,,,,
$GPGSA,A,3,21,15,18,24,26,29,6,22,3,,,,2,1.1,01.7*04,,
$GPGSV,3,1,12,21,75,306,46,15,59,74,45,18,57,269,43,24,55,116,46*77
$GPGSV,3,2,12,26,48,58,49,29,26,188,39,6,25,307,40,22,18,257,38*74
$GPGSV,3,3,12,3,12,320,38,9,7,144,34,16,4,310,,8,3,23,*73
$GPRMC,140206,A,4454.2042,N,9325.0531,W,10.1,268.5,300508,1.1,E,A*2E,,,,,,,
$GPGGA,140206,4454.2042,N,9325.0531,W,1,9,1.1,296.4,M,-30.7,M,,*59,,,,,
$GPGSA,A,3,21,15,18,24,26,29,6,22,3,,,,2,1.1,01.7*04,,
$GPGSV,3,1,12,21,75,306,47,15,59,74,45,18,57,269,42,24,55,116,46*77
$GPGSV,3,2,12,26,48,58,48,29,26,188,39,6,25,307,40,22,18,257,39*74
$GPGSV,3,3,12,3,12,320,39,9,7,144,35,16,4,310,,8,3,23,*73
$GPRMC,140207,A,4454.2028,N,9325.0567,W,10.5,249.3,300508,1.1,E,A*21,,,,,,,
$GPGGA,140207,4454.2028,N,9325.0567,W,1,9,1.1,296.4,M,-30.7,M,,*57,,,,,
$GPGSA,A,3,21,15,18,24,26,29,6,22,3,,,,2,1.1,01.7*04,,
$GPGSV,3,1,12,21,75,306,47,15,59,74,44,18,57,269,43,24,55,116,47*76
$GPGSV,3,2,12,26,48,58,48,29,26,188,40,6,25,307,41,22,18,257,38*7A
$GPGSV,3,3,12,3,12,320,40,9,7,144,36,16,4,310,,8,3,23,*7E
$GPRMC,140208,A,4454.2009,N,9325.0596,W,9.9,237,300508,1.1,E,A*2D,,,,,,,
$GPGGA,140208,4454.2009,N,9325.0596,W,1,9,1.1,296.8,M,-30.7,M,,*59,,,,,
$GPGSA,A,3,21,15,18,24,26,29,6,22,3,,,,2,1.1,01.7*04,,
$GPGSV,3,1,12,21,75,306,46,15,59,74,44,18,57,269,44,24,55,116,48*7F
$GPGSV,3,2,12,26,48,58,47,29,26,188,39,6,25,307,42,22,18,257,38*78
$GPGSV,3,3,12,3,12,320,41,9,7,144,36,16,4,310,,8,3,23,*7F
$GPRMC,140209,A,4454.1991,N,9325.0622,W,8.7,230.1,300508,1.1,E,A*22,,,,,,,
$GPGGA,140209,4454.1991,N,9325.0622,W,1,9,1.1,297,M,-30.7,M,,*56,,,,,
$GPGSA,A,3,21,15,18,24,26,29,6,22,3,,,,2,1.1,01.7*04,,
$GPGSV,3,1,12,21,75,306,45,15,59,74,44,18,57,269,44,24,55,116,48*7C
$GPGSV,3,2,12,26,48,58,45,29,26,188,38,6,25,307,42,22,18,257,37*74
$GPGSV,3,3,12,3,12,320,41,9,7,144,35,16,4,310,,8,3,23,*7C
$GPRMC,140210,A,4454.1976,N,9325.0641,W,7.5,226.6,300508,1.1,E,A*2B,,,,,,,
$GPGGA,140210,4454.1976,N,9325.0641,W,1,8,1.5,297.3,M,-30.7,M,,*54,,,,,
$GPGSA,A,3,21,15,18,24,26,,6,22,3,,,,2.5,1.5,02.0*0A,,
$GPGSV,3,1,12,21,75,306,44,15,59,74,44,18,57,269,44,24,55,116,48*7D
$GPGSV,3,2,12,26,48,58,44,29,26,188,35,6,25,307,42,22,18,257,35*7A
$GPGSV,3,3,12,3,12,320,41,9,7,144,35,16,4,310,,8,3,23,*7C
$GPRMC,140211,A,4454.1968,N,9325.0648,W,5.2,224.4,300508,1.1,E,A*29,,,,,,,
$GPGGA,140211,4454.1968,N,9325.0648,W,1,8,1.2,296.9,M,-30.7,M,,*5F,,,,,
$GPGSA,A,3,21,15,18,24,26,29,6,,3,,,,2,1.2,01.7*07,,
$GPGSV,3,1,12,21,75,306,43,15,59,74,44,18,57,269,44,24,55,116,48*7A
$GPGSV,3,2,12,26,48,58,43,29,26,188,32,6,25,307,42,22,18,257,33*7C
$GPGSV,3,3,12,3,12,320,41,9,7,144,35,16,4,310,,8,3,23,*7C
$GPRMC,140212,A,4454.1969,N,9325.0649,W,2.9,223.4,300508,1.1,E,A*21,,,,,,,
$GPGGA,140212,4454.1969,N,9325.0649,W,1,7,2.4,297.3,M,-30.7,M,,*5D,,,,,
$GPGSA,A,3,21,15,18,24,26,,6,,3,,,,3.8,2.4,02.9*0D,,
$GPGSV,3,1,12,21,75,306,43,15,59,74,44,18,57,269,44,24,55,116,48*7A
$GPGSV,3,2,12,26,48,58,42,29,26,188,29,6,25,307,42,22,18,257,31*75
$GPGSV,3,3,12,3,12,320,41,9,7,144,35,16,4,310,,8,3,23,*7C
$GPRMC,140213,A,4454.1968,N,9325.0652,W,3,222,300508,1.1,E,A*26,,,,,,,
$GPGGA,140213,4454.1968,N,9325.0652,W,1,9,1.1,298.1,M,-30.7,M,,*52,,,,,
$GPGSA,A,3,21,15,18,24,26,29,6,22,3,,,,2,1.1,01.7*04,,
$GPGSV,3,1,12,21,75,306,43,15,59,74,44,18,57,269,44,24,55,116,48*7A
$GPGSV,3,2,12,26,48,58,42,29,26,188,29,6,25,307,42,22,18,257,30*74
$GPGSV,3,3,12,3,12,320,41,9,7,144,32,16,4,310,,8,3,23,*7B
$GPRMC,140214,A,4454.1958,N,9325.0658,W,3.4,219.4,300508,1.1,E,A*20,,,,,,,
$GPGGA,140214,4454.1958,N,9325.0658,W,1,9,1.1,297.5,M,-30.7,M,,*57,,,,,
$GPGSA,A,3,21,15,18,24,26,29,6,22,3,,,,2,1.1,01.7*04,,
$GPGSV,3,1,12,21,75,306,43,15,59,74,45,18,57,269,43,24,55,116,49*7D
$GPGSV,3,2,12,26,48,58,43,29,26,188,32,6,25,307,42,22,18,257,33*7C
$GPGSV,3,3,12,3,12,320,41,9,7,144,30,16,4,310,,8,3,23,*79
$GPRMC,140215,A,4454.1938,N,9325.0669,W,5.1,209.8,300508,1.1,E,A*2B,,,,,,,
$GPGGA,140215,4454.1938,N,9325.0669,W,1,9,1.1,297.4,M,-30.7,M,,*53,,,,,
$GPGSA,A,3,21,15,18,24,26,29,6,22,3,,,,2,1.1,01.7*04,,
$GPGSV,3,1,12,21,75,306,42,15,59,74,45,18,57,269,44,24,55,116,48*7A
$GPGSV,3,2,12,26,48,58,45,29,26,188,36,6,25,307,43,22,18,257,35*79
$GPGSV,3,3,12,3,12,320,42,9,7,144,31,16,4,310,,8,3,23,*7B
$GPRMC,140216,A,4454.1917,N,9325.0674,W,8.8,193.5,300508,1.1,E,A*20,,,,,,,
$GPGGA,140216,4454.1917,N,9325.0674,W,1,8,1.2,297.7,M,-30.7,M,,*50,,,,,
$GPGSA,A,3,21,15,18,24,26,29,6,22,,,,,2.4,1.2,02.0*04,,
$GPGSV,3,1,12,21,75,306,41,15,59,74,46,18,57,269,44,24,55,116,47*75
$GPGSV,3,2,12,26,48,58,46,29,26,188,37,6,25,307,42,22,18,257,36*79
$GPGSV,3,3,12,3,12,320,40,9,7,144,31,16,4,310,,8,3,23,*79
$GPRMC,140217,A,4454.1887,N,9325.0663,W,9.8,175.7,300508,1.1,E,A*24,,,,,,,
$GPGGA,140217,4454.1887,N,9325.0663,W,1,8,1.5,296.1,M,-30.7,M,,*5F,,,,,
$GPGSA,A,3,21,15,18,24,26,,6,22,3,,,,2.5,1.5,02.0*0A,,
$GPGSV,3,1,12,21,75,306,41,15,59,74,45,18,57,269,44,24,55,116,47*76
$GPGSV,3,2,12,26,48,58,46,29,26,188,36,6,25,307,41,22,18,257,37*7A
$GPGSV,3,3,12,3,12,320,39,9,7,144,32,16,4,310,,8,3,23,*74
$GPRMC,140218,A,4454.1858,N,9325.0642,W,10.7,165.2,300508,1.1,E,A*29,,,,,,,
$GPGGA,140218,4454.1858,N,9325.0642,W,1,8,1.5,297.5,M,-30.7,M,,*54,,,,,
$GPGSA,A,3,21,15,18,24,26,,6,22,3,,,,2.5,1.5,02.0*0A,,
$GPGSV,3,1,12,21,75,306,41,15,59,74,45,18,57,269,45,24,55,116,46*76
$GPGSV,3,2,12,26,48,58,45,29,26,188,34,6,25,307,40,22,18,257,36*7B
$GPGSV,3,3,12,3,12,320,39,9,7,144,33,16,4,310,,8,3,23,*75
$GPRMC,140219,A,4454.1814,N,9325.0617,W,11.4,160.1,300508,1.1,E,A*24,,,,,,,
$GPGGA,140219,4454.1814,N,9325.0617,W,1,8,1.5,297,M,-30.7,M,,*58,,,,,
$GPGSA,A,3,21,15,18,24,26,,6,22,3,,,,2.5,1.5,02.0*0A,,
$GPGSV,3,1,12,21,75,306,41,15,59,74,45,18,57,269,46,24,55,116,45*76
$GPGSV,3,2,12,26,48,58,44,29,26,188,32,6,25,307,38,22,18,257,35*70
$GPGSV,3,3,12,3,12,320,39,9,7,144,33,16,4,310,,8,3,23,*75
$GPRMC,140220,A,4454.1769,N,9325.059,W,13.7,158.4,300508,1.1,E,A*28,,,,,,,
$GPGGA,140220,4454.1769,N,9325.059,W,1,9,1.1,296.9,M,-30.7,M,,*56,,,,,
$GPGSA,A,3,21,15,18,24,26,29,6,22,3,,,,2,1.1,01.7*04,,
$GPGSV,3,1,12,21,75,306,41,15,59,74,45,18,57,269,46,24,55,116,44*77
$GPGSV,3,2,12,26,48,58,45,29,26,188,31,6,25,307,36,22,18,257,37*7E
$GPGSV,3,3,12,3,12,320,37,9,7,144,33,16,4,310,,8,3,23,*7B
$GPRMC,140221,A,4454.1721,N,9325.0567,W,17.9,160.7,300508,1.1,E,A*2F,,,,,,,
$GPGGA,140221,4454.1721,N,9325.0567,W,1,7,1.7,296.6,M,-30.7,M,,*54,,,,,
$GPGSA,A,3,21,15,18,24,26,,6,22,,,,,2.8,1.7,02.2*04,,
$GPGSV,3,1,12,21,75,306,42,15,59,74,45,18,57,269,45,24,55,116,44*77
$GPGSV,3,2,12,26,48,58,45,29,26,188,31,6,25,307,36,22,18,257,39*70
$GPGSV,3,3,12,3,12,320,34,9,7,144,32,16,4,310,,8,3,23,*79
$GPRMC,140222,A,4454.1671,N,9325.0549,W,18.6,165.5,300508,1.1,E,A*23,,,,,,,
$GPGGA,140222,4454.1671,N,9325.0549,W,1,7,1.6,296.4,M,-30.7,M,,*5C,,,,,
$GPGSA,A,3,21,15,18,24,26,,,22,3,,,,2.5,1.6,02.0*0F,,
$GPGSV,3,1,12,21,75,306,42,15,59,74,45,18,57,269,45,24,55,116,45*76
$GPGSV,3,2,12,26,48,58,45,29,26,188,30,6,26,307,35,22,18,257,40*7F
$GPGSV,3,3,12,3,12,320,34,9,7,144,32,16,4,310,,8,3,23,*79
$GPRMC,140223,A,4454.1617,N,9325.0539,W,19.9,170.7,300508,1.1,E,A*2D,,,,,,,
$GPGGA,140223,4454.1617,N,9325.0539,W,1,7,1.3,295.4,M,-30.7,M,,*5C,,,,,
$GPGSA,A,3,21,15,18,24,26,29,6,,,,,,2.5,1.3,02.2*06,,
$GPGSV,3,1,12,21,75,306,42,15,59,74,46,18,57,269,43,24,55,116,45*73
$GPGSV,3,2,12,26,48,58,45,29,26,188,33,6,26,307,36,22,18,257,40*7F
$GPGSV,3,3,12,3,12,320,33,9,7,144,31,16,4,310,,8,3,23,*7D
$GPRMC,140224,A,4454.1561,N,9325.0536,W,20.1,174.9,300508,1.1,E,A*2F,,,,,,,
$GPGGA,140224,4454.1561,N,9325.0536,W,1,8,1.2,294.6,M,-30.7,M,,*5B,,,,,
$GPGSA,A,3,21,15,18,24,26,29,6,22,,,,,2.4,1.2,02.0*04,,
$GPGSV,3,1,12,21,75,306,42,15,59,74,46,18,57,269,43,24,55,116,45*73
$GPGSV,3,2,12,26,48,58,45,29,26,188,35,6,26,307,36,22,18,257,38*76
$GPGSV,3,3,12,3,12,320,31,9,7,144,29,16,4,310,,8,3,23,*76
$GPRMC,140225,A,4454.1496,N,9325.0534,W,23.2,177.6,300508,1.1,E,A*29,,,,,,,
$GPGGA,140225,4454.1496,N,9325.0534,W,1,6,2.1,294.8,M,-30.7,M,,*51,,,,,
$GPGSA,A,3,21,15,18,24,26,29,,,,,,,4.7,2.1,04.2*03,,
$GPGSV,3,1,12,21,75,306,42,15,59,74,46,18,57,269,42,24,55,116,46*71
$GPGSV,3,2,12,26,48,58,44,29,26,188,37,6,26,307,34,22,18,257,36*79
$GPGSV,3,3,12,3,12,320,29,9,7,144,27,16,4,310,,8,3,23,*71
$GPRMC,140226,A,4454.1428,N,9325.0533,W,23.3,179,300508,1.1,E,A*21,,,,,,,
$GPGGA,140226,4454.1428,N,9325.0533,W,1,7,1.5,293.8,M,-30.7,M,,*51,,,,,
$GPGSA,A,3,21,15,18,24,26,29,,22,,,,,2.8,1.5,02.4*0D,,
$GPGSV,3,1,12,21,75,306,42,15,59,74,46,18,57,269,42,24,55,116,46*71
$GPGSV,3,2,12,26,48,58,43,29,26,188,39,6,26,307,32,22,18,257,36*76
$GPGSV,3,3,12,3,12,320,27,9,7,144,25,16,4,310,,8,3,23,*7D
$GPRMC,140227,A,4454.1364,N,9325.0533,W,23.6,179.5,300508,1.1,E,A*2F,,,,,,,
$GPGGA,140227,4454.1364,N,9325.0533,W,1,6,1.6,294.5,M,-30.7,M,,*57,,,,,
$GPGSA,A,3,21,15,,24,26,29,,22,,,,,3.2,1.6,02.8*00,,
$GPGSV,3,1,12,21,75,306,41,15,59,74,46,18,57,269,41,24,55,116,46*71
$GPGSV,3,2,12,26,48,58,42,29,26,188,39,6,26,307,30,22,18,257,35*76
$GPGSV,3,3,12,3,12,320,26,9,7,144,25,16,4,310,,8,3,23,*7C
$GPRMC,140228,A,4454.1294,N,9325.0533,W,23.6,179.5,300508,1.1,E,A*2E,,,,,,,
$GPGGA,140228,4454.1294,N,9325.0533,W,1,7,1.5,294.7,M,-30.7,M,,*56,,,,,
$GPGSA,A,3,21,15,18,24,26,29,,22,,,,,2.8,1.5,02.4*0D,,
$GPGSV,3,1,12,21,75,306,41,15,59,74,46,18,57,269,42,24,55,116,46*72
$GPGSV,3,2,12,26,48,58,42,29,26,188,39,6,26,307,28,22,18,257,36*7C
$GPGSV,3,3,12,3,12,320,26,9,7,144,23,16,4,310,,8,3,23,*7A
$GPRMC,140229,A,4454.1227,N,9325.0533,W,22.3,179.6,300508,1.1,E,A*20,,,,,,,
$GPGGA,140229,4454.1227,N,9325.0533,W,1,5,2.5,295.7,M,-30.7,M,,*5F,,,,,
$GPGSA,A,3,21,15,,24,26,29,,,,,,,4.9,2.5,04.2*00,,
$GPGSV,3,1,12,21,75,306,40,15,59,74,46,18,57,269,41,24,55,116,46*70
$GPGSV,3,2,12,26,48,58,42,29,26,188,40,6,26,307,26,22,18,257,36*7C
$GPGSV,3,3,12,3,12,320,24,9,7,144,21,16,4,310,,8,3,23,*7A
$GPRMC,140230,A,4454.1169,N,9325.0532,W,20.4,179.6,300508,1.1,E,A*25,,,,,,,
$GPGGA,140230,4454.1169,N,9325.0532,W,1,6,2.1,294,M,-30.7,M,,*5E,,,,,
$GPGSA,A,3,21,15,18,24,26,29,,,,,,,4.7,2.1,04.2*03,,
$GPGSV,3,1,12,21,75,306,41,15,59,74,46,18,57,269,42,24,55,116,46*72
$GPGSV,3,2,12,26,48,58,42,29,26,188,41,6,26,307,26,22,18,257,35*7E
$GPGSV,3,3,12,3,12,320,23,9,7,144,21,16,4,310,,8,3,23,*7D
$GPRMC,140231,A,4454.1114,N,9325.0533,W,18.5,180,300508,1.1,E,A*25,,,,,,,
$GPGGA,140231,4454.1114,N,9325.0533,W,1,7,1.5,293.9,M,-30.7,M,,*5C,,,,,
$GPGSA,A,3,21,15,18,24,26,29,,22,,,,,2.8,1.5,02.4*0D,,
$GPGSV,3,1,12,21,75,306,41,15,58,74,46,18,57,269,43,24,55,116,46*72
$GPGSV,3,2,12,26,48,58,41,29,26,188,41,6,26,307,28,22,18,257,37*71
$GPGSV,3,3,12,3,12,320,23,9,7,144,21,16,4,310,,8,3,23,*7D
$GPRMC,140232,A,4454.107,N,9325.0535,W,15.6,180,300508,1.1,E,A*2D,,,,,,,
$GPGGA,140232,4454.107,N,9325.0535,W,1,8,1.2,294,M,-30.7,M,,*5C,,,,,
$GPGSA,A,3,21,15,18,24,26,29,6,22,,,,,2.4,1.2,02.0*04,,
$GPGSV,3,1,12,21,75,306,42,15,58,74,46,18,57,269,43,24,55,116,46*71
$GPGSV,3,2,12,26,48,58,41,29,26,188,41,6,26,307,29,22,18,257,37*70
$GPGSV,3,3,12,3,12,320,22,9,7,144,22,16,3,310,,8,3,23,*78
$GPRMC,140233,A,4454.1033,N,9325.0536,W,12.4,180.1,300508,1.1,E,A*2C,,,,,,,
$GPGGA,140233,4454.1033,N,9325.0536,W,1,7,1.3,292.6,M,-30.7,M,,*57,,,,,
$GPGSA,A,3,21,15,18,24,26,29,6,,,,,,2.5,1.3,02.2*06,,
$GPGSV,3,1,12,21,75,306,42,15,58,74,46,18,57,270,43,24,55,116,46*79
$GPGSV,3,2,12,26,48,58,42,29,26,188,41,6,26,307,31,22,18,257,36*7B
$GPGSV,3,3,12,3,12,320,22,9,7,144,23,8,3,23,,16,3,310,*79
$GPRMC,140234,A,4454.1007,N,9325.0535,W,10,180.9,300508,1.1,E,A*21,,,,,,,
$GPGGA,140234,4454.1007,N,9325.0535,W,1,8,1.2,291.9,M,-30.7,M,,*56,,,,,
$GPGSA,A,3,21,15,18,24,26,29,6,22,,,,,2.4,1.2,02.0*04,,
$GPGSV,3,1,12,21,75,306,42,15,58,74,46,18,57,270,43,24,55,116,46*79
$GPGSV,3,2,12,26,48,58,43,29,26,188,41,6,26,307,33,22,18,257,37*79
$GPGSV,3,3,12,3,12,320,22,9,7,144,24,8,3,23,,16,3,310,*7E
$GPRMC,140235,A,4454.098,N,9325.0537,W,8.6,183.7,300508,1.1,E,A*27,,,,,,,
$GPGGA,140235,4454.098,N,9325.0537,W,1,7,1.5,292.4,M,-30.7,M,,*54,,,,,
$GPGSA,A,3,21,15,18,24,26,29,,22,,,,,2.8,1.5,02.4*0D,,
$GPGSV,3,1,12,21,75,306,42,15,58,74,46,18,57,270,42,24,55,116,46*78
$GPGSV,3,2,12,26,48,58,43,29,26,188,41,6,26,307,32,22,18,257,39*76
$GPGSV,3,3,12,3,12,320,23,9,7,144,27,8,3,23,,16,3,310,*7C
$GPRMC,140236,A,4454.0967,N,9325.0543,W,6,187.4,300508,1.1,E,A*21,,,,,,,
$GPGGA,140236,4454.0967,N,9325.0543,W,1,8,1.2,292.8,M,-30.7,M,,*59,,,,,
$GPGSA,A,3,21,15,18,24,26,29,6,22,,,,,2.4,1.2,02.0*04,,
$GPGSV,3,1,12,21,75,306,42,15,58,74,46,18,57,270,43,24,55,116,46*79
$GPGSV,3,2,12,26,48,58,44,29,26,188,42,6,26,307,31,22,18,257,39*71
$GPGSV,3,3,12,3,12,320,26,9,7,144,27,8,3,23,,16,3,310,*79
$GPRMC,140237,A,4454.0963,N,9325.0548,W,3.7,189.4,300508,1.1,E,A*23,,,,,,,
$GPGGA,140237,4454.0963,N,9325.0548,W,1,7,1.5,293.2,M,-30.7,M,,*54,,,,,
$GPGSA,A,3,21,15,18,24,26,29,,22,,,,,2.8,1.5,02.4*0D,,
$GPGSV,3,1,12,21,75,306,42,15,58,74,46,18,57,270,44,24,55,116,45*7D
$GPGSV,3,2,12,26,48,58,45,29,26,188,42,6,26,307,31,22,18,258,40*71
$GPGSV,3,3,12,3,12,320,27,9,7,144,26,8,3,23,,16,3,310,*79
$GPRMC,140238,A,4454.0958,N,9325.055,W,3.7,191.6,300508,1.1,E,A*26,,,,,,,
$GPGGA,140238,4454.0958,N,9325.055,W,1,9,1.1,293.9,M,-30.7,M,,*5B,,,,,
$GPGSA,A,3,21,15,18,24,26,29,6,22,3,,,,2,1.1,01.7*04,,
$GPGSV,3,1,12,21,75,306,41,15,58,74,46,18,57,270,45,24,55,116,45*7F
$GPGSV,3,2,12,26,48,58,46,29,26,188,42,6,26,307,31,22,18,258,41*73
$GPGSV,3,3,12,3,12,320,28,9,7,144,30,8,3,23,,16,3,310,*71
$GPRMC,140239,A,4454.0951,N,9325.0557,W,4.1,197.5,300508,1.1,E,A*2D,,,,,,,
$GPGGA,140239,4454.0951,N,9325.0557,W,1,8,1.1,294.4,M,-30.7,M,,*5F,,,,,
$GPGSA,A,3,21,15,18,24,26,29,,22,3,,,,2,1.1,01.7*02,,
$GPGSV,3,1,12,21,75,306,41,15,58,74,46,18,57,270,44,24,55,116,45*7E
$GPGSV,3,2,12,26,48,58,47,29,26,188,43,6,26,307,30,22,18,258,41*72
$GPGSV,3,3,12,3,12,320,29,9,7,144,32,8,3,23,,16,3,310,*72
$GPRMC,140240,A,4454.0938,N,9325.0573,W,4.4,209.2,300508,1.1,E,A*2C,,,,,,,
$GPGGA,140240,4454.0938,N,9325.0573,W,1,8,1.1,294.3,M,-30.7,M,,*5F,,,,,
$GPGSA,A,3,21,15,18,24,26,29,,22,3,,,,2,1.1,01.7*02,,
$GPGSV,3,1,12,21,75,306,41,15,58,74,47,18,57,270,43,24,55,116,46*7B
$GPGSV,3,2,12,26,48,58,47,29,26,188,41,6,26,307,28,22,18,258,41*79
$GPGSV,3,3,12,3,12,320,30,9,7,144,32,8,3,23,,16,3,310,*7A
$GPRMC,140241,A,4454.0923,N,9325.06,W,6.2,224.6,300508,1.1,E,A*2F,,,,,,,
$GPGGA,140241,4454.0923,N,9325.06,W,1,8,1.2,294.7,M,-30.7,M,,*54,,,,,
$GPGSA,A,3,21,15,18,24,26,29,6,22,,,,,2.4,1.2,02.0*04,,
$GPGSV,3,1,12,21,75,306,42,15,58,74,46,18,57,270,43,24,55,116,46*79
$GPGSV,3,2,12,26,47,58,47,29,26,188,41,6,26,307,32,22,18,258,39*72
$GPGSV,3,3,12,3,12,320,29,9,7,144,31,8,3,23,,16,3,310,*71
$GPRMC,140242,A,4454.0914,N,9325.064,W,8.6,241.9,300508,1.1,E,A*2A,,,,,,,
$GPGGA,140242,4454.0914,N,9325.064,W,1,9,1.1,295,M,-30.7,M,,*53,,,,,
$GPGSA,A,3,21,15,18,24,26,29,6,22,3,,,,2,1.1,01.7*04,,
$GPGSV,3,1,12,21,75,306,43,15,58,74,45,18,57,270,43,24,55,116,47*7A
$GPGSV,3,2,12,26,47,58,48,29,26,188,40,6,26,307,35,22,18,258,38*7A
$GPGSV,3,3,12,3,12,320,32,9,7,144,31,8,3,23,,16,3,310,*7B
$GPRMC,140243,A,4454.0908,N,9325.0694,W,15.3,254.8,300508,1.1,E,A*23,,,,,,,
$GPGGA,140243,4454.0908,N,9325.0694,W,1,8,1.2,295.4,M,-30.7,M,,*50,,,,,
$GPGSA,A,3,21,15,18,24,26,29,6,22,,,,,2.4,1.2,02.0*04,,
$GPGSV,3,1,12,21,75,306,45,15,58,74,44,18,57,270,42,24,55,116,47*7C
$GPGSV,3,2,12,26,47,58,48,29,26,188,38,6,26,307,35,22,18,258,40*7A
$GPGSV,3,3,12,3,12,320,32,9,7,144,33,8,3,23,,16,3,310,*79
$GPRMC,140244,A,4454.0905,N,9325.076,W,16.5,261.8,300508,1.1,E,A*20,,,,,,,
$GPGGA,140244,4454.0905,N,9325.076,W,1,8,1.1,295.4,M,-30.7,M,,*53,,,,,
$GPGSA,A,3,21,15,18,24,26,29,,22,3,,,,2,1.1,01.7*02,,
$GPGSV,3,1,12,21,75,306,46,15,58,74,44,18,57,270,41,24,55,116,46*7D
$GPGSV,3,2,12,26,47,58,48,29,26,188,37,6,26,307,32,22,18,258,42*70
$GPGSV,3,3,12,3,12,320,32,9,7,144,33,8,3,23,,16,3,310,*79
$GPRMC,140245,A,4454.0904,N,9325.0837,W,20.9,266.2,300508,1.1,E,A*29,,,,,,,
$GPGGA,140245,4454.0904,N,9325.0837,W,1,7,1.5,295.2,M,-30.7,M,,*53,,,,,
$GPGSA,A,3,21,15,18,24,26,29,,22,,,,,2.8,1.5,02.4*0D,,
$GPGSV,3,1,12,21,75,306,47,15,58,74,44,18,57,270,41,24,55,116,46*7C
$GPGSV,3,2,12,26,47,58,48,29,26,188,37,6,26,307,29,22,18,258,43*7B
$GPGSV,3,3,12,3,12,320,31,9,7,144,31,8,3,23,,16,3,310,*78
$GPRMC,140246,A,4454.0901,N,9325.0923,W,21.3,266.5,300508,1.1,E,A*27,,,,,,,
$GPGGA,140246,4454.0901,N,9325.0923,W,1,7,1.6,295.3,M,-30.7,M,,*53,,,,,
$GPGSA,A,3,21,15,18,24,26,,,22,3,,,,2.5,1.6,02.0*0F,,
$GPGSV,3,1,12,21,75,306,48,15,58,74,43,18,57,270,41,24,55,116,46*74
$GPGSV,3,2,12,26,47,58,46,29,26,188,35,6,26,307,27,22,18,258,43*79
$GPGSV,3,3,12,3,12,320,32,9,7,144,30,8,3,23,,16,3,310,*7A
$GPRMC,140247,A,4454.0895,N,9325.1018,W,24.3,266.7,300508,1.1,E,A*2D,,,,,,,
$GPGGA,140247,4454.0895,N,9325.1018,W,1,6,2.4,295.1,M,-30.7,M,,*5C,,,,,
$GPGSA,A,3,21,15,18,24,26,,,22,,,,,3.4,2.4,02.4*09,,
$GPGSV,3,1,12,21,75,306,48,15,58,74,43,18,57,270,40,24,55,116,46*75
$GPGSV,3,2,12,26,47,58,46,29,26,188,32,6,26,307,28,22,18,258,43*71
$GPGSV,3,3,12,3,12,320,32,9,7,144,30,8,3,23,,16,3,310,*7A
$GPRMC,140248,A,4454.0891,N,9325.112,W,25.1,266.2,300508,1.1,E,A*2A,,,,,,,
$GPGGA,140248,4454.0891,N,9325.112,W,1,7,1.6,295.3,M,-30.7,M,,*5F,,,,,
$GPGSA,A,3,21,15,18,24,26,,,22,3,,,,2.5,1.6,02.0*0F,,
$GPGSV,3,1,12,21,75,306,48,15,58,74,43,18,57,270,40,24,55,116,46*75
$GPGSV,3,2,12,26,47,58,45,29,26,188,30,6,26,307,28,22,18,258,44*77
$GPGSV,3,3,12,3,12,320,34,9,7,144,32,8,3,23,,16,3,310,*7E
$GPRMC,140249,A,4454.0884,N,9325.1227,W,27.5,265.4,300508,1.1,E,A*28,,,,,,,
$GPGGA,140249,4454.0884,N,9325.1227,W,1,6,2.4,295.6,M,-30.7,M,,*5B,,,,,
$GPGSA,A,3,21,15,18,24,26,,,22,,,,,3.4,2.4,02.4*09,,
$GPGSV,3,1,12,21,75,306,48,15,58,74,44,18,57,270,40,24,55,116,46*72
$GPGSV,3,2,12,26,47,58,45,29,26,188,27,6,26,307,28,22,18,258,44*71
$GPGSV,3,3,12,3,12,320,35,9,7,144,34,8,3,23,,16,3,310,*79
$GPRMC,140250,A,4454.0875,N,9325.1335,W,27.6,264.1,300508,1.1,E,A*2B,,,,,,,
$GPGGA,140250,4454.0875,N,9325.1335,W,1,7,1.7,296.4,M,-30.7,M,,*5F,,,,,
$GPGSA,A,3,21,15,18,24,26,,6,22,,,,,2.8,1.7,02.2*04,,
$GPGSV,3,1,12,21,75,306,48,15,58,74,44,18,57,270,40,24,55,116,46*72
$GPGSV,3,2,12,26,47,58,46,29,26,188,27,6,26,307,28,22,18,258,44*72
$GPGSV,3,3,12,3,12,320,34,9,7,144,36,8,3,23,,16,3,310,*7A
$GPRMC,140251,A,4454.0862,N,9325.1447,W,27.5,262.1,300508,1.1,E,A*2B,,,,,,,
$GPGGA,140251,4454.0862,N,9325.1447,W,1,8,1.2,297.9,M,-30.7,M,,*5C,,,,,
$GPGSA,A,3,21,15,18,24,26,29,6,22,,,,,2.4,1.2,02.0*04,,
$GPGSV,3,1,12,21,75,306,47,15,58,74,44,18,57,270,41,24,55,116,46*7C
$GPGSV,3,2,12,26,47,58,47,29,26,188,31,6,26,307,31,22,18,258,43*7B
$GPGSV,3,3,12,3,12,320,33,9,7,144,37,8,3,23,,16,3,310,*7C
$GPRMC,140252,A,4454.085,N,9325.1554,W,27.3,258.9,300508,1.1,E,A*2D,,,,,,,
$GPGGA,140252,4454.085,N,9325.1554,W,1,9,1.1,298.4,M,-30.7,M,,*5D,,,,,
$GPGSA,A,3,21,15,18,24,26,29,6,22,3,,,,2,1.1,01.7*04,,
$GPGSV,3,1,12,21,75,306,47,15,58,74,44,18,57,270,41,24,55,116,47*7D
$GPGSV,3,2,12,26,47,58,47,29,26,188,32,6,26,307,33,22,18,258,42*7B
$GPGSV,3,3,12,3,12,320,32,9,7,144,37,8,3,23,,16,3,310,*7D
$GPRMC,140253,A,4454.0827,N,9325.1656,W,27.1,255.3,300508,1.1,E,A*28,,,,,,,
$GPGGA,140253,4454.0827,N,9325.1656,W,1,6,2.4,298.6,M,-30.7,M,,*56,,,,,
$GPGSA,A,3,21,15,18,24,26,,,22,,,,,3.4,2.4,02.4*09,,
$GPGSV,3,1,12,21,75,306,47,15,58,74,43,18,57,270,41,24,55,116,47*7A
$GPGSV,3,2,12,26,47,58,47,29,26,188,33,6,26,307,33,22,18,258,41*79
$GPGSV,3,3,12,3,12,320,31,9,7,144,36,8,3,23,,16,3,310,*7F
$GPRMC,140254,A,4454.0804,N,9325.1757,W,27.1,251.2,300508,1.1,E,A*2B,,,,,,,
$GPGGA,140254,4454.0804,N,9325.1757,W,1,8,1.2,298.2,M,-30.7,M,,*5F,,,,,
$GPGSA,A,3,21,15,18,24,26,29,6,22,,,,,2.4,1.2,02.0*04,,
$GPGSV,3,1,12,21,75,306,46,15,58,74,42,18,57,270,41,24,55,116,47*7A
$GPGSV,3,2,12,26,47,58,47,29,26,188,35,6,26,307,35,22,18,258,40*78
$GPGSV,3,3,12,3,12,320,30,9,7,144,36,8,3,23,,16,3,310,*7E
$GPRMC,140255,A,4454.0775,N,9325.1858,W,27.3,247,300508,1.1,E,A*24,,,,,,,
$GPGGA,140255,4454.0775,N,9325.1858,W,1,9,1.1,297.6,M,-30.7,M,,*5E,,,,,
$GPGSA,A,3,21,15,18,24,26,29,6,22,3,,,,2,1.1,01.7*04,,
$GPGSV,3,1,12,21,75,306,45,15,58,74,42,18,57,270,43,24,55,116,47*7B
$GPGSV,3,2,12,26,47,58,47,29,26,188,34,6,26,307,37,22,18,258,40*7B
$GPGSV,3,3,12,3,12,320,31,9,7,144,34,8,3,23,,16,3,310,*7D
$GPRMC,140256,A,4454.0735,N,9325.1953,W,28,242.7,300508,1.1,E,A*27,,,,,,,
$GPGGA,140256,4454.0735,N,9325.1953,W,1,6,2.4,296.7,M,-30.7,M,,*5A,,,,,
$GPGSA,A,3,21,15,18,24,26,,,22,,,,,3.4,2.4,02.4*09,,
$GPGSV,3,1,12,21,75,306,44,15,58,74,42,18,57,270,44,24,55,116,47*7D
$GPGSV,3,2,12,26,47,58,47,29,26,188,33,6,26,307,36,22,18,258,39*73
$GPGSV,3,3,12,3,12,320,29,9,7,144,32,8,3,23,,16,3,310,*72
$GPRMC,140257,A,4454.0694,N,9325.2046,W,28.3,238,300508,1.1,E,A*2B,,,,,,,
$GPGGA,140257,4454.0694,N,9325.2046,W,1,7,1.3,296.6,M,-30.7,M,,*5B,,,,,
$GPGSA,A,3,21,15,18,24,26,29,6,,,,,,2.5,1.3,02.2*06,,
$GPGSV,3,1,12,21,75,306,43,15,58,74,42,18,57,270,45,24,55,116,47*7B
$GPGSV,3,2,12,26,47,58,47,29,26,188,34,6,26,307,35,22,18,258,36*78
$GPGSV,3,3,12,3,12,320,29,9,7,144,33,8,3,23,,16,3,310,*73
$GPRMC,140258,A,4454.0632,N,9325.2131,W,28.5,232.8,300508,1.1,E,A*2D,,,,,,,
$GPGGA,140258,4454.0632,N,9325.2131,W,1,7,1.6,297.5,M,-30.7,M,,*5E,,,,,
$GPGSA,A,3,21,15,18,24,26,,,22,3,,,,2.5,1.6,02.0*0F,,
$GPGSV,3,1,12,21,75,306,43,15,58,74,42,18,57,270,45,24,55,116,45*79
$GPGSV,3,2,12,26,47,58,47,29,26,188,34,6,26,307,34,22,18,258,36*79
$GPGSV,3,3,12,3,12,320,30,9,7,144,34,8,3,23,,16,3,310,*7C
$GPRMC,140259,A,4454.0578,N,9325.2213,W,28.6,227.9,300508,1.1,E,A*24,,,,,,,
$GPGGA,140259,4454.0578,N,9325.2213,W,1,9,1.1,296.7,M,-30.7,M,,*5B,,,,,
$GPGSA,A,3,21,15,18,24,26,29,6,22,3,,,,2,1.1,01.7*04,,
$GPGSV,3,1,12,21,75,306,42,15,58,74,43,18,57,270,44,24,55,116,46*7B
$GPGSV,3,2,12,26,47,58,46,29,26,188,33,6,26,307,37,22,18,258,35*7F
$GPGSV,3,3,12,3,12,320,33,9,7,144,34,8,3,23,,16,3,310,*7F
$GPRMC,140300,A,4454.052,N,9325.2286,W,28.3,223.6,300508,1.1,E,A*26,,,,,,,
$GPGGA,140300,4454.052,N,9325.2286,W,1,9,1.1,296.5,M,-30.7,M,,*55,,,,,
$GPGSA,A,3,21,15,18,24,26,29,6,22,3,,,,2,1.1,01.7*04,,
$GPGSV,3,1,12,21,75,306,41,15,58,74,44,18,57,270,43,24,55,116,47*79
$GPGSV,3,2,12,26,47,58,45,29,26,188,34,6,26,307,39,22,18,258,35*75
$GPGSV,3,3,12,3,12,320,36,9,8,144,34,8,3,23,,16,3,310,*75
$GPRMC,140301,A,4454.046,N,9325.2351,W,27.6,218.5,300508,1.1,E,A*28,,,,,,,
$GPGGA,140301,4454.046,N,9325.2351,W,1,9,1.1,296.4,M,-30.7,M,,*5B,,,,,
$GPGSA,A,3,21,15,18,24,26,29,6,22,3,,,,2,1.1,01.7*04,,
$GPGSV,3,1,12,21,75,306,40,15,58,74,45,18,57,270,44,24,55,116,47*7E
$GPGSV,3,2,12,26,47,58,45,29,26,188,35,6,26,307,40,22,18,258,37*78
$GPGSV,3,3,12,3,12,320,38,9,8,144,34,8,3,23,,16,3,310,*7B
$GPRMC,140302,A,4454.0398,N,9325.2401,W,25.1,211.8,300508,1.1,E,A*28,,,,,,,
$GPGGA,140302,4454.0398,N,9325.2401,W,1,9,1.1,296.4,M,-30.7,M,,*5A,,,,,
$GPGSA,A,3,21,15,18,24,26,29,6,22,3,,,,2,1.1,01.7*04,,
$GPGSV,3,1,12,21,75,306,40,15,58,74,46,18,57,270,44,24,55,116,47*7D
$GPGSV,3,2,12,26,47,58,46,29,26,188,38,6,26,307,42,22,18,258,39*7A
$GPGSV,3,3,12,3,12,320,39,9,8,144,35,8,3,23,,16,3,310,*7B
$GPRMC,140303,A,4454.0338,N,9325.2432,W,22.2,203.2,300508,1.1,E,A*2E,,,,,,,
$GPGGA,140303,4454.0338,N,9325.2432,W,1,8,1.2,296.4,M,-30.7,M,,*53,,,,,
$GPGSA,A,3,21,15,18,24,26,29,6,22,,,,,2.4,1.2,02.0*04,,
$GPGSV,3,1,12,21,75,306,40,15,58,74,46,18,57,270,44,24,55,116,47*7D
$GPGSV,3,2,12,26,47,58,46,29,26,188,40,6,26,307,42,22,18,258,41*7A
$GPGSV,3,3,12,3,12,320,37,9,8,144,34,8,3,23,,16,3,310,*74
$GPRMC,140304,A,4454.0283,N,9325.2444,W,19.9,193.5,300508,1.1,E,A*27,,,,,,,
$GPGGA,140304,4454.0283,N,9325.2444,W,1,8,1.2,296.4,M,-30.7,M,,*54,,,,,
$GPGSA,A,3,21,15,18,24,26,29,6,22,,,,,2.4,1.2,02.0*04,,
$GPGSV,3,1,12,21,75,306,40,15,58,74,46,18,57,270,43,24,55,116,46*7B
$GPGSV,3,2,12,26,47,58,45,29,26,188,41,6,26,307,41,22,18,258,42*78
$GPGSV,3,3,12,3,12,320,35,9,8,144,31,8,3,23,,16,3,310,*73
$GPRMC,140305,A,4454.0234,N,9325.2443,W,16.8,183.9,300508,1.1,E,A*2E,,,,,,,
$GPGGA,140305,4454.0234,N,9325.2443,W,1,9,1.1,295.8,M,-30.7,M,,*53,,,,,
$GPGSA,A,3,21,15,18,24,26,29,6,22,3,,,,2,1.1,01.7*04,,
$GPGSV,3,1,12,21,75,306,40,15,58,74,46,18,57,270,43,24,55,116,46*7B
$GPGSV,3,2,12,26,47,58,45,29,26,188,41,6,26,307,41,22,18,258,41*7B
$GPGSV,3,3,12,3,12,320,34,9,8,144,31,8,3,23,,16,3,310,*72
$GPRMC,140306,A,4454.0192,N,9325.2432,W,14.7,175.8,300508,1.1,E,A*21,,,,,,,
$GPGGA,140306,4454.0192,N,9325.2432,W,1,9,1.1,295.8,M,-30.7,M,,*59,,,,,
$GPGSA,A,3,21,15,18,24,26,29,6,22,3,,,,2,1.1,01.7*04,,
$GPGSV,3,1,12,21,75,306,41,15,58,73,45,18,57,270,43,24,55,116,46*7E
$GPGSV,3,2,12,26,47,58,45,29,26,188,40,6,26,307,40,22,18,258,39*74
$GPGSV,3,3,12,3,12,320,34,9,8,144,33,8,3,23,,16,3,310,*70
$GPRMC,140307,A,4454.0153,N,9325.242,W,12.8,173,300508,1.1,E,A*29,,,,,,,
$GPGGA,140307,4454.0153,N,9325.242,W,1,8,1.2,294.9,M,-30.7,M,,*54,,,,,
$GPGSA,A,3,21,15,18,24,26,29,6,22,,,,,2.4,1.2,02.0*04,,
$GPGSV,3,1,12,21,75,306,41,15,58,73,45,18,57,270,44,24,55,116,46*79
$GPGSV,3,2,12,26,47,58,46,29,26,188,39,6,26,307,39,22,18,258,39*77
$GPGSV,3,3,12,3,12,320,33,9,8,144,36,8,3,23,,16,3,310,*72
$GPRMC,140308,A,4454.0121,N,9325.2413,W,10.7,173.7,300508,1.1,E,A*29,,,,,,,
$GPGGA,140308,4454.0121,N,9325.2413,W,1,8,1.2,294.9,M,-30.7,M,,*5E,,,,,
$GPGSA,A,3,21,15,18,24,26,29,6,22,,,,,2.4,1.2,02.0*04,,
$GPGSV,3,1,12,21,75,306,41,15,58,73,45,18,58,270,45,24,55,116,46*77
$GPGSV,3,2,12,26,47,58,46,29,26,188,39,6,26,307,39,22,18,258,39*77
$GPGSV,3,3,12,3,12,320,30,9,8,144,37,8,3,23,,16,3,310,*70
$GPRMC,140309,A,4454.0097,N,9325.2409,W,9.1,174.3,300508,1.1,E,A*22,,,,,,,
$GPGGA,140309,4454.0097,N,9325.2409,W,1,8,1.2,294.9,M,-30.7,M,,*58,,,,,
$GPGSA,A,3,21,18,15,24,26,29,6,22,,,,,2.4,1.2,02.0*04,,
$GPGSV,3,1,12,21,75,306,41,18,58,270,46,15,58,73,45,24,55,116,46*74
$GPGSV,3,2,12,26,47,58,46,29,26,188,39,6,26,307,40,22,18,258,39*79
$GPGSV,3,3,12,3,12,320,27,9,8,144,37,8,3,23,,16,3,310,*76
$GPRMC,140310,A,4454.0084,N,9325.2406,W,6,174.5,300508,1.1,E,A*2F,,,,,,,
$GPGGA,140310,4454.0084,N,9325.2406,W,1,8,1.2,294.7,M,-30.7,M,,*53,,,,,
$GPGSA,A,3,21,18,15,24,26,29,6,22,,,,,2.4,1.2,02.0*04,,
$GPGSV,3,1,12,21,75,306,41,18,58,270,46,15,58,73,45,24,55,116,46*74
$GPGSV,3,2,12,26,47,58,46,29,26,188,39,6,26,307,40,22,18,258,38*78
$GPGSV,3,3,12,3,12,320,26,9,8,144,37,8,3,23,,16,3,310,*77
$GPRMC,140311,A,4454.0077,N,9325.2404,W,4.4,174.1,300508,1.1,E,A*22,,,,,,,
$GPGGA,140311,4454.0077,N,9325.2404,W,1,9,1.1,294.9,M,-30.7,M,,*50,,,,,
$GPGSA,A,3,21,18,15,24,26,29,6,22,3,,,,2,1.1,01.7*04,,
$GPGSV,3,1,12,21,76,306,41,18,58,270,46,15,58,73,45,24,55,116,46*77
$GPGSV,3,2,12,26,47,58,46,29,26,188,40,6,26,307,40,22,18,258,38*76
$GPGSV,3,3,12,3,12,320,27,9,8,144,37,8,3,23,,16,3,310,*76
$GPRMC,140312,A,4454.0068,N,9325.24,W,4.4,169.4,300508,1.1,E,A*22,,,,,,,
$GPGGA,140312,4454.0068,N,9325.24,W,1,9,1.1,294.9,M,-30.7,M,,*59,,,,,
$GPGSA,A,3,21,18,15,24,26,29,6,22,3,,,,2,1.1,01.7*04,,
$GPGSV,3,1,12,21,76,306,41,18,58,270,46,15,58,73,45,24,55,116,46*77
$GPGSV,3,2,12,26,47,58,46,29,26,188,39,6,26,307,40,22,18,258,39*79
$GPGSV,3,3,12,3,12,320,29,9,8,144,37,8,3,23,,16,3,310,*78
$GPRMC,140313,A,4454.0052,N,9325.2386,W,9.3,158.5,300508,1.1,E,A*2A,,,,,,,
$GPGGA,140313,4454.0052,N,9325.2386,W,1,8,1.5,294.6,M,-30.7,M,,*52,,,,,
$GPGSA,A,3,21,18,15,24,26,,6,22,3,,,,2.5,1.5,02.0*0A,,
$GPGSV,3,1,12,21,76,306,41,18,58,270,46,15,58,73,45,24,55,116,45*74
$GPGSV,3,2,12,26,47,58,46,29,26,188,37,6,26,307,38,22,18,258,39*78
$GPGSV,3,3,12,3,12,320,33,9,8,144,37,8,3,23,,16,3,310,*73
$GPRMC,140314,A,4454.003,N,9325.2361,W,12,146.5,300508,1.1,E,A*26,,,,,,,
$GPGGA,140314,4454.003,N,9325.2361,W,1,9,1.1,294.8,M,-30.7,M,,*53,,,,,
$GPGSA,A,3,21,18,15,24,26,29,6,22,3,,,,2,1.1,01.7*04,,
$GPGSV,3,1,12,21,76,306,40,18,58,270,46,15,58,73,45,24,55,116,44*74
$GPGSV,3,2,12,26,47,58,45,29,26,188,39,6,26,307,39,22,18,258,38*75
$GPGSV,3,3,12,3,12,320,36,9,8,144,37,8,3,23,,16,3,310,*76
$GPRMC,140315,A,4454.0008,N,9325.2317,W,15.4,136.4,300508,1.1,E,A*28,,,,,,,
$GPGGA,140315,4454.0008,N,9325.2317,W,1,8,1.2,294,M,-30.7,M,,*52,,,,,
$GPGSA,A,3,21,18,15,24,26,29,6,,3,,,,2,1.2,01.7*07,,
$GPGSV,3,1,12,21,76,306,40,18,58,270,47,15,58,73,45,24,55,116,43*72
$GPGSV,3,2,12,26,47,58,44,29,26,188,41,6,26,307,39,22,18,258,36*75
$GPGSV,3,3,12,3,12,320,37,9,8,144,36,8,3,23,,16,3,310,*76
$GPRMC,140316,A,4453.9981,N,9325.2265,W,15.8,132.8,300508,1.1,E,A*2D,,,,,,,
$GPGGA,140316,4453.9981,N,9325.2265,W,1,9,1.1,293.5,M,-30.7,M,,*53,,,,,
$GPGSA,A,3,21,18,15,24,26,29,6,22,3,,,,2,1.1,01.7*04,,
$GPGSV,3,1,12,21,76,306,39,18,58,270,48,15,58,73,45,24,55,116,43*73
$GPGSV,3,2,12,26,47,57,43,29,26,188,41,6,26,307,40,22,18,258,34*71
$GPGSV,3,3,12,3,12,320,38,9,8,144,35,8,3,23,,16,3,310,*7A
$GPRMC,140317,A,4453.9947,N,9325.2209,W,18.2,134.6,300508,1.1,E,A*23,,,,,,,
$GPGGA,140317,4453.9947,N,9325.2209,W,1,9,1.1,293.5,M,-30.7,M,,*52,,,,,
$GPGSA,A,3,21,18,15,24,26,29,6,22,3,,,,2,1.1,01.7*04,,
$GPGSV,3,1,12,21,76,306,39,18,58,270,48,15,58,73,45,24,55,116,43*73
$GPGSV,3,2,12,26,47,57,43,29,26,188,41,6,26,307,39,22,18,258,34*7F
$GPGSV,3,3,12,3,12,320,38,9,8,144,33,8,3,23,,16,3,310,*7C
$GPRMC,140318,A,4453.99,N,9325.2156,W,20.8,138.5,300508,1.1,E,A*28,,,,,,,
$GPGGA,140318,4453.99,N,9325.2156,W,1,8,1.5,295.3,M,-30.7,M,,*52,,,,,
$GPGSA,A,3,21,18,15,24,26,,6,22,3,,,,2.5,1.5,02.0*0A,,
$GPGSV,3,1,12,21,76,306,39,18,58,270,48,15,58,73,44,24,55,116,42*73
$GPGSV,3,2,12,26,47,57,42,29,26,188,39,6,26,307,38,22,18,258,36*72
$GPGSV,3,3,12,3,12,320,39,9,8,144,32,8,3,23,,16,3,310,*7C
$GPRMC,140319,A,4453.9849,N,9325.21,W,21.2,140.3,300508,1.1,E,A*24,,,,,,,
$GPGGA,140319,4453.9849,N,9325.21,W,1,9,1.1,296.4,M,-30.7,M,,*5D,,,,,
$GPGSA,A,3,21,18,15,24,26,29,6,22,3,,,,2,1.1,01.7*04,,
$GPGSV,3,1,12,21,76,306,40,18,58,270,48,15,58,73,44,24,55,116,41*7E
$GPGSV,3,2,12,26,47,57,41,29,25,188,39,6,26,307,37,22,18,258,37*7C
$GPGSV,3,3,12,3,12,320,39,9,8,144,30,8,3,23,,16,3,310,*7E
$GPRMC,140320,A,4453.98,N,9325.204,W,23.7,139,300508,1.1,E,A*2C,,,,,,,
$GPGGA,140320,4453.98,N,9325.204,W,1,8,1.2,298.1,M,-30.7,M,,*56,,,,,
$GPGSA,A,3,21,18,15,24,26,29,6,,3,,,,2,1.2,01.7*07,,
$GPGSV,3,1,12,21,76,306,39,18,58,270,47,15,58,73,44,24,55,116,41*7F
$GPGSV,3,2,12,26,47,57,41,29,25,188,40,6,26,307,37,22,18,258,36*73
$GPGSV,3,3,12,3,12,320,39,9,8,144,29,8,3,23,,16,3,310,*76
$GPRMC,140321,A,4453.9754,N,9325.1974,W,23.8,135.1,300508,1.1,E,A*2C,,,,,,,
$GPGGA,140321,4453.9754,N,9325.1974,W,1,8,1.2,297.3,M,-30.7,M,,*59,,,,,
$GPGSA,A,3,21,18,15,24,26,6,29,,3,,,,2,1.2,01.7*07,,
$GPGSV,3,1,12,21,76,306,39,18,58,270,47,15,58,73,44,24,55,116,41*7F
$GPGSV,3,2,12,26,47,57,40,6,26,307,39,29,25,188,40,22,18,258,33*79
$GPGSV,3,3,12,3,12,320,38,9,8,144,27,8,3,23,,16,3,310,*79
$GPRMC,140322,A,4453.9712,N,9325.1898,W,24.2,130.4,300508,1.1,E,A*23,,,,,,,
$GPGGA,140322,4453.9712,N,9325.1898,W,1,9,1.1,296.7,M,-30.7,M,,*5C,,,,,
$GPGSA,A,3,21,18,15,24,26,6,29,22,3,,,,2,1.1,01.7*04,,
$GPGSV,3,1,12,21,76,306,39,18,58,270,48,15,58,73,44,24,55,116,41*70
$GPGSV,3,2,12,26,47,57,39,6,26,307,39,29,25,188,41,22,18,258,33*76
$GPGSV,3,3,12,3,12,320,37,9,8,144,25,8,3,23,,16,3,310,*74
$GPRMC,140323,A,4453.9677,N,9325.1815,W,24.3,125.8,300508,1.1,E,A*2C,,,,,,,
$GPGGA,140323,4453.9677,N,9325.1815,W,1,8,1.2,296.4,M,-30.7,M,,*5B,,,,,
$GPGSA,A,3,21,18,15,24,26,6,29,22,,,,,2.4,1.2,02.0*04,,
$GPGSV,3,1,12,21,76,306,39,18,58,270,48,15,58,73,43,24,55,116,40*76
$GPGSV,3,2,12,26,47,57,38,6,26,307,39,29,25,188,41,22,18,258,34*70
$GPGSV,3,3,12,3,12,320,34,9,8,144,25,8,3,23,,16,3,310,*77
$GPRMC,140324,A,4453.9651,N,9325.1722,W,24.6,119.8,300508,1.1,E,A*2E,,,,,,,
$GPGGA,140324,4453.9651,N,9325.1722,W,1,5,1.7,296.9,M,-30.7,M,,*56,,,,,
$GPGSA,A,3,21,18,15,,,6,29,,,,,,2.9,1.7,02.4*0A,,
$GPGSV,3,1,12,21,76,306,40,18,58,270,48,15,58,73,42,24,55,116,38*76
$GPGSV,3,2,12,26,47,57,37,6,26,307,38,29,25,188,41,22,18,258,33*79
$GPGSV,3,3,12,3,12,320,31,9,8,144,26,8,3,23,,16,3,310,*71
$GPRMC,140325,A,4453.9635,N,9325.1628,W,25.5,114.3,300508,1.1,E,A*22,,,,,,,
$GPGGA,140325,4453.9635,N,9325.1628,W,1,6,2.4,298.6,M,-30.7,M,,*5C,,,,,
$GPGSA,A,3,21,18,15,24,26,6,,,,,,,4.2,2.4,03.4*0F,,
