$GPGSA,A,3,21,18,15,24,22,3,,,,,,,2.6,1.7,02.1*08,,
$GPGSV,3,1,12,21,85,284,41,18,65,283,47,15,52,61,38,24,46,124,35*77
$GPGSV,3,2,12,22,26,264,45,3,17,313,30,8,15,51,,9,14,139,*76
$GPGSV,3,3,12,29,10,40,,26,1,37,,16,1,302,,0,0,0,*72
$GPRMC,140345.24,A,4455.6214,N,9329.5341,W,0,0,40608,1.2,E,A*2C,,,,,,,
$GPGGA,140345.24,4455.6214,N,9329.5341,W,1,5,2.3,286.4,M,-30.7,M,,*59,,,,,
$GPGSA,A,3,21,18,15,24,22,,,,,,,,3.6,2.3,02.7*0B,,
$GPGSV,3,1,12,21,85,284,40,18,65,283,47,15,52,61,38,24,46,124,34*77
$GPGSV,3,2,12,22,26,264,45,3,17,313,30,8,15,51,,9,14,139,*76
$GPGSV,3,3,12,29,10,40,,16,1,302,,26,1,37,,0,0,0,*72
$GPRMC,140346.24,A,4455.6214,N,9329.5341,W,0,0,40608,1.2,E,A*2F,,,,,,,
$GPGGA,140346.24,4455.6214,N,9329.5341,W,1,6,1.7,286.4,M,-30.7,M,,*5E,,,,,
$GPGSA,A,3,21,18,15,24,22,3,,,,,,,2.6,1.7,02.1*08,,
$GPGSV,3,1,12,21,85,284,40,18,65,283,47,15,52,61,38,24,46,124,34*77
$GPGSV,3,2,12,22,26,264,44,3,17,313,30,8,15,51,,9,14,139,*77
$GPGSV,3,3,12,29,10,40,,16,1,302,,26,1,37,,0,0,0,*72
$GPRMC,140347.24,A,4455.6214,N,9329.5341,W,0,0,40608,1.2,E,A*2E,,,,,,,
$GPGGA,140347.24,4455.6214,N,9329.5341,W,1,6,1.7,286.4,M,-30.7,M,,*5F,,,,,
$GPGSA,A,3,21,18,15,24,22,3,,,,,,,2.6,1.7,02.1*08,,
$GPGSV,3,1,12,21,85,284,40,18,65,283,46,15,52,61,38,24,46,124,33*71
$GPGSV,3,2,12,22,26,264,44,3,17,313,29,8,15,51,,9,14,139,*7F
$GPGSV,3,3,12,29,10,40,,26,1,37,,16,1,302,,0,0,0,*72
$GPRMC,140348.24,A,4455.6214,N,9329.5341,W,0,0,40608,1.2,E,A*21,,,,,,,
$GPGGA,140348.24,4455.6214,N,9329.5341,W,1,5,2.3,286.4,M,-30.7,M,,*54,,,,,
$GPGSA,A,3,21,18,15,24,22,,,,,,,,3.6,2.3,02.7*0B,,
$GPGSV,3,1,12,21,85,284,40,18,65,283,46,15,52,61,38,24,46,124,32*70
$GPGSV,3,2,12,22,26,264,43,3,17,313,27,8,15,51,,9,14,139,*76
$GPGSV,3,3,12,29,10,40,,26,1,37,,16,1,302,,0,0,0,*72
$GPRMC,140349.24,A,4455.6214,N,9329.5341,W,0.1,0,40608,1.2,E,A*21,,,,,,,
$GPGGA,140349.24,4455.6214,N,9329.5341,W,1,5,2.3,286.4,M,-30.7,M,,*55,,,,,
$GPGSA,A,3,21,18,15,24,22,,,,,,,,3.6,2.3,02.7*0B,,
$GPGSV,3,1,12,21,85,284,40,18,65,283,46,15,52,61,37,24,46,124,32*7F
$GPGSV,3,2,12,22,26,264,43,3,17,313,26,8,15,51,,9,14,139,*77
$GPGSV,3,3,12,29,10,40,,26,1,37,,16,1,302,,0,0,0,*72
$GPRMC,140350.24,A,4455.6214,N,9329.5341,W,0.1,0,40608,1.2,E,A*29,,,,,,,
$GPGGA,140350.24,4455.6214,N,9329.5341,W,1,5,2.3,286.4,M,-30.7,M,,*5D,,,,,
$GPGSA,A,3,21,18,15,24,22,,,,,,,,3.6,2.3,02.7*0B,,
$GPGSV,3,1,12,21,85,284,40,18,65,283,46,15,52,61,37,24,46,124,31*7C
$GPGSV,3,2,12,22,26,264,42,3,17,313,25,8,15,51,,9,14,139,*75
$GPGSV,3,3,12,29,10,40,,26,1,37,,16,1,302,,0,0,0,*72
$GPRMC,140351.24,A,4455.6214,N,9329.5341,W,0.3,0,40608,1.2,E,A*2A,,,,,,,
$GPGGA,140351.24,4455.6214,N,9329.5341,W,1,4,9,286.4,M,-30.7,M,,*55,,,,,
$GPGSA,A,3,21,18,15,,22,,,,,,,,9.5,9,03.0*0A,,
$GPGSV,3,1,12,21,85,284,39,18,65,283,46,15,52,61,38,24,46,124,29*74
$GPGSV,3,2,12,22,26,264,40,3,17,313,23,8,15,51,,9,14,139,*71
$GPGSV,3,3,12,29,10,40,,26,1,37,,16,1,302,,0,0,0,*72
$GPRMC,140352.24,A,4455.6214,N,9329.5341,W,0.4,9.6,40608,1.2,E,A*21,,,,,,,
$GPGGA,140352.24,4455.6214,N,9329.5341,W,1,6,1.7,286.4,M,-30.7,M,,*5B,,,,,
$GPGSA,A,3,21,18,15,24,22,3,,,,,,,2.6,1.7,02.1*08,,
$GPGSV,3,1,12,21,85,284,40,18,65,283,46,15,52,61,38,24,46,124,30*72
$GPGSV,3,2,12,22,26,264,39,3,17,313,26,8,15,50,,9,14,139,*7B
$GPGSV,3,3,12,29,10,40,,26,1,37,,16,1,302,,0,0,0,*72
$GPRMC,140353.24,A,4455.6214,N,9329.5341,W,1.2,10.3,40608,1.2,E,A*2A,,,,,,,
$GPGGA,140353.24,4455.6214,N,9329.5341,W,1,6,1.7,286.4,M,-30.7,M,,*5A,,,,,
$GPGSA,A,3,21,18,15,24,22,3,,,,,,,2.6,1.7,02.1*08,,
$GPGSV,3,1,12,21,85,284,40,18,65,283,46,15,52,61,38,24,46,124,33*71
$GPGSV,3,2,12,22,26,264,40,3,17,313,29,8,15,50,,9,14,138,*7B
$GPGSV,3,3,12,29,10,40,,26,1,37,,16,1,302,,0,0,0,*72
$GPRMC,140354.24,A,4455.6214,N,9329.5341,W,2.3,1.4,40608,1.2,E,A*28,,,,,,,
$GPGGA,140354.24,4455.6214,N,9329.5341,W,1,6,1.7,286.4,M,-30.7,M,,*5D,,,,,
$GPGSA,A,3,21,18,15,24,22,3,,,,,,,2.6,1.7,02.1*08,,
$GPGSV,3,1,12,21,85,284,40,18,65,283,45,15,52,61,39,24,46,124,37*77
$GPGSV,3,2,12,22,26,264,41,3,17,313,33,8,15,50,,9,14,138,*71
$GPGSV,3,3,12,29,10,40,,26,1,37,,16,1,302,,0,0,0,*72
$GPRMC,140355.24,A,4455.6361,N,9329.53,W,3,353.8,40608,1.2,E,A*25,,,,,,,
$GPGGA,140355.24,4455.6361,N,9329.53,W,1,6,1.7,293.6,M,-30.7,M,,*5C,,,,,
$GPGSA,A,3,21,18,15,24,22,3,,,,,,,2.6,1.7,02.1*08,,
$GPGSV,3,1,12,21,85,284,40,18,65,283,43,15,52,61,39,24,46,124,39*7F
$GPGSV,3,2,12,22,26,264,40,3,17,313,35,8,15,50,,9,14,138,*76
$GPGSV,3,3,12,29,10,40,,26,1,37,,16,1,302,,0,0,0,*72
$GPRMC,140356.24,A,4455.6367,N,9329.5309,W,4.5,348.7,40608,1.2,E,A*2E,,,,,,,
$GPGGA,140356.24,4455.6367,N,9329.5309,W,1,6,1.7,293.4,M,-30.7,M,,*52,,,,,
$GPGSA,A,3,21,18,15,24,22,3,,,,,,,2.6,1.7,02.1*08,,
$GPGSV,3,1,12,21,85,284,39,18,65,283,42,15,52,61,38,24,46,124,40*7F
$GPGSV,3,2,12,22,26,264,38,3,17,313,35,8,15,50,,9,14,138,*79
$GPGSV,3,3,12,29,10,40,,26,1,37,,16,1,302,,0,0,0,*72
$GPRMC,140357.24,A,4455.6376,N,9329.5327,W,4.6,346.2,40608,1.2,E,A*2B,,,,,,,
$GPGGA,140357.24,4455.6376,N,9329.5327,W,1,4,6.2,294.5,M,-30.7,M,,*59,,,,,
$GPGSA,A,3,21,18,,,22,3,,,,,,,9,6.2,06.5*05,,
$GPGSV,3,1,12,21,85,284,38,18,65,283,40,15,52,61,36,24,46,124,38*7D
$GPGSV,3,2,12,22,26,264,36,3,17,313,35,8,15,50,,9,14,138,*77
$GPGSV,3,3,12,29,10,40,,26,1,37,,16,1,302,,0,0,0,*72
$GPRMC,140358.24,A,4455.6378,N,9329.5347,W,4.2,342.7,40608,1.2,E,A*29,,,,,,,
$GPGGA,140358.24,4455.6378,N,9329.5347,W,1,4,13,295.6,M,-30.7,M,,*5A,,,,,
$GPGSA,A,3,21,18,,,22,3,,,,,,,14.5,13,06.5*0A,,
$GPGSV,3,1,12,21,85,284,37,18,65,283,38,15,52,61,34,24,46,124,36*71
$GPGSV,3,2,12,22,26,264,34,3,17,313,33,8,15,50,,9,14,138,*73
$GPGSV,3,3,12,29,10,40,,26,1,37,,16,1,302,,0,0,0,*72
$GPRMC,140359.24,A,4455.6388,N,9329.5354,W,4.2,342.2,40608,1.2,E,A*20,,,,,,,
$GPGGA,140359.24,4455.6388,N,9329.5354,W,1,4,3,295.2,M,-30.7,M,,*53,,,,,
$GPGSA,A,3,21,18,15,24,,,,,,,,,9.1,3,08.6*0F,,
$GPGSV,3,1,12,21,85,284,39,18,65,283,37,15,52,61,34,24,46,124,36*70
$GPGSV,3,2,12,22,26,264,34,3,17,313,31,8,15,50,,9,14,138,*71
$GPGSV,3,3,12,29,10,40,,26,1,37,,16,1,302,,0,0,0,*72
$GPRMC,140400.24,A,4455.6401,N,9329.5359,W,4.3,341.3,40608,1.2,E,A*23,,,,,,,
$GPGGA,140400.24,4455.6401,N,9329.5359,W,1,5,2.3,294.5,M,-30.7,M,,*56,,,,,
$GPGSA,A,3,21,18,15,24,,3,,,,,,,3.3,2.3,02.3*09,,
$GPGSV,3,1,12,21,85,284,41,18,65,283,38,15,52,61,34,24,46,124,34*72
$GPGSV,3,2,12,22,26,264,33,3,17,313,33,8,15,50,,9,14,138,*74
$GPGSV,3,3,12,29,10,40,,26,1,37,,16,1,302,,0,0,0,*72
$GPRMC,140401.24,A,4455.6416,N,9329.5364,W,4.8,345.9,40608,1.2,E,A*2F,,,,,,,
$GPGGA,140401.24,4455.6416,N,9329.5364,W,1,5,3.5,293.9,M,-30.7,M,,*53,,,,,
$GPGSA,A,3,21,18,15,24,,3,,,,,,,4.2,3.5,02.4*0F,,
$GPGSV,3,1,12,21,85,284,41,18,65,283,38,15,52,61,33,24,46,124,32*73
$GPGSV,3,2,12,22,26,264,30,3,17,313,32,8,15,50,,9,14,138,*76
$GPGSV,3,3,12,29,10,40,,16,1,302,,26,1,37,,0,0,0,*72
$GPRMC,140402.24,A,4455.6436,N,9329.5367,W,4.8,348.8,40608,1.2,E,A*21,,,,,,,
$GPGGA,140402.24,4455.6436,N,9329.5367,W,1,4,8.9,293.8,M,-30.7,M,,*56,,,,,
$GPGSA,A,3,21,18,15,,22,,,,,,,,9.4,8.9,03.0*03,,
$GPGSV,3,1,12,21,85,284,42,18,65,283,39,15,52,61,37,24,46,124,30*77
$GPGSV,3,2,12,22,26,264,31,3,17,313,31,8,15,50,,9,14,138,*74
$GPGSV,3,3,12,29,10,40,41,16,1,302,,26,1,37,,0,0,0,*77
$GPRMC,140403.24,A,4455.6447,N,9329.5368,W,4.5,351.5,40608,1.2,E,A*21,,,,,,,
$GPGGA,140403.24,4455.6447,N,9329.5368,W,1,4,3,294.1,M,-30.7,M,,*52,,,,,
$GPGSA,A,3,21,18,15,24,,,,,,,,,9.1,3,08.6*0F,,
$GPGSV,3,1,12,21,85,281,43,18,65,283,40,15,52,61,39,24,46,124,30*73
$GPGSV,3,2,12,22,26,264,31,3,17,313,31,8,15,50,,9,14,138,*74
$GPGSV,3,3,12,29,10,40,41,16,1,302,,19,0,332,,0,0,0,*7C
$GPRMC,140404.24,A,4455.6453,N,9329.5368,W,3.6,355.1,40608,1.2,E,A*27,,,,,,,
$GPGGA,140404.24,4455.6453,N,9329.5368,W,1,5,2.3,293.7,M,-30.7,M,,*52,,,,,
$GPGSA,A,3,21,18,15,24,22,,,,,,,,3.6,2.3,02.7*0B,,
$GPGSV,3,1,12,21,85,281,43,18,65,283,40,15,52,61,40,24,46,124,30*7D
$GPGSV,3,2,12,22,26,264,35,3,17,313,30,8,15,50,,9,14,138,*71
$GPGSV,3,3,12,29,10,40,40,16,1,302,,19,0,332,,0,0,0,*7D
$GPRMC,140405.24,A,4455.6463,N,9329.5371,W,3.2,357.4,40608,1.2,E,A*2E,,,,,,,
$GPGGA,140405.24,4455.6463,N,9329.5371,W,1,5,2.3,293.3,M,-30.7,M,,*5C,,,,,
$GPGSA,A,3,21,18,15,24,22,,,,,,,,3.6,2.3,02.7*0B,,
$GPGSV,3,1,12,21,85,281,43,18,65,283,41,15,52,61,41,24,46,124,32*7F
$GPGSV,3,2,12,22,26,264,36,3,17,313,30,8,15,50,,9,14,138,*72
$GPGSV,3,3,12,29,10,40,40,16,1,302,,19,0,332,,0,0,0,*7D
$GPRMC,140406.24,A,4455.6466,N,9329.5372,W,3.2,358.8,40608,1.2,E,A*28,,,,,,,
$GPGGA,140406.24,4455.6466,N,9329.5372,W,1,5,2.3,292.7,M,-30.7,M,,*5C,,,,,
$GPGSA,A,3,21,18,15,24,22,,,,,,,,3.6,2.3,02.7*0B,,
$GPGSV,3,1,12,21,85,281,43,18,65,283,42,15,52,61,42,24,46,124,33*7E
$GPGSV,3,2,12,22,26,264,36,3,17,313,29,8,15,50,,9,14,138,*7A
$GPGSV,3,3,12,29,10,40,40,16,1,302,,19,0,332,,0,0,0,*7D
$GPRMC,140407.24,A,4455.6472,N,9329.5371,W,3,0.2,40608,1.2,E,A*29,,,,,,,
$GPGGA,140407.24,4455.6472,N,9329.5371,W,1,6,1.6,291.2,M,-30.7,M,,*58,,,,,
$GPGSA,A,3,21,18,15,24,22,3,,,,,,,2.6,1.6,02.1*09,,
$GPGSV,3,1,12,21,85,281,43,18,65,283,42,15,52,61,43,24,46,124,35*79
$GPGSV,3,2,12,22,26,264,37,3,17,313,29,8,15,50,,9,14,138,*7B
$GPGSV,3,3,12,29,10,40,40,16,1,302,,19,0,332,,0,0,0,*7D
$GPRMC,140408.24,A,4455.6479,N,9329.5368,W,3.4,7.5,40608,1.2,E,A*21,,,,,,,
$GPGGA,140408.24,4455.6479,N,9329.5368,W,1,6,1.6,290,M,-30.7,M,,*57,,,,,
$GPGSA,A,3,21,18,15,24,22,3,,,,,,,2.6,1.6,02.1*09,,
$GPGSV,3,1,12,21,85,281,44,18,65,283,43,15,52,61,43,24,46,124,37*7D
$GPGSV,3,2,12,22,26,264,39,3,17,313,31,8,15,50,,9,14,138,*7C
$GPGSV,3,3,12,29,10,40,39,16,1,302,,19,0,332,,0,0,0,*73
$GPRMC,140409.24,A,4455.6488,N,9329.5357,W,5.3,26.8,40608,1.2,E,A*2D,,,,,,,
$GPGGA,140409.24,4455.6488,N,9329.5357,W,1,6,1.6,288.9,M,-30.7,M,,*54,,,,,
$GPGSA,A,3,21,18,15,24,22,3,,,,,,,2.6,1.6,02.1*09,,
$GPGSV,3,1,12,21,85,281,44,18,65,283,44,15,52,61,43,24,46,124,38*75
$GPGSV,3,2,12,22,26,264,40,3,17,313,32,8,15,50,,9,14,138,*71
$GPGSV,3,3,12,29,10,40,36,16,1,302,,19,0,332,,0,0,0,*7C
$GPRMC,140410.24,A,4455.6493,N,9329.5336,W,5.7,51.4,40608,1.2,E,A*20,,,,,,,
$GPGGA,140410.24,4455.6493,N,9329.5336,W,1,6,1.6,288,M,-30.7,M,,*58,,,,,
$GPGSA,A,3,21,18,15,24,22,3,,,,,,,2.6,1.6,02.1*09,,
$GPGSV,3,1,12,21,85,281,44,18,65,283,45,15,52,61,42,24,46,124,40*7A
$GPGSV,3,2,12,22,26,264,40,3,17,313,32,8,15,50,,9,14,138,*71
$GPGSV,3,3,12,29,10,40,34,16,1,302,,19,0,332,,0,0,0,*7E
$GPRMC,140411.24,A,4455.6495,N,9329.5307,W,6.8,67.2,40608,1.2,E,A*2A,,,,,,,
$GPGGA,140411.24,4455.6495,N,9329.5307,W,1,6,1.6,286.9,M,-30.7,M,,*5A,,,,,
$GPGSA,A,3,21,18,15,24,22,3,,,,,,,2.6,1.6,02.1*09,,
$GPGSV,3,1,12,21,85,281,44,18,65,283,46,15,52,61,40,24,46,124,39*75
$GPGSV,3,2,12,22,26,264,40,3,17,313,34,8,15,50,,9,14,138,*77
$GPGSV,3,3,12,29,10,40,32,16,1,302,,19,0,332,,0,0,0,*78
$GPRMC,140412.24,A,4455.6494,N,9329.5271,W,10.3,79.4,40608,1.2,E,A*2D,,,,,,,
$GPGGA,140412.24,4455.6494,N,9329.5271,W,1,6,1.6,286.3,M,-30.7,M,,*52,,,,,
$GPGSA,A,3,21,18,15,24,22,3,,,,,,,2.6,1.6,02.1*09,,
$GPGSV,3,1,12,21,85,281,44,18,65,283,46,15,52,61,40,24,46,124,39*75
$GPGSV,3,2,12,22,26,264,39,3,17,313,36,8,15,50,,9,14,138,*7B
$GPGSV,3,3,12,29,10,40,30,16,1,302,,19,0,332,,0,0,0,*7A
$GPRMC,140413.24,A,4455.6491,N,9329.5225,W,13.3,86,40608,1.2,E,A*2F,,,,,,,
$GPGGA,140413.24,4455.6491,N,9329.5225,W,1,6,1.6,285.8,M,-30.7,M,,*5F,,,,,
$GPGSA,A,3,21,18,15,24,22,3,,,,,,,2.6,1.6,02.1*09,,
$GPGSV,3,1,12,21,85,281,44,18,65,283,45,15,52,61,41,24,46,124,39*77
$GPGSV,3,2,12,22,26,264,38,3,17,313,37,8,15,50,,9,14,138,*7B
$GPGSV,3,3,12,29,10,40,31,16,1,302,,19,0,332,,0,0,0,*7B
$GPRMC,140414.24,A,4455.6488,N,9329.5166,W,16.6,89.2,40608,1.2,E,A*29,,,,,,,
$GPGGA,140414.24,4455.6488,N,9329.5166,W,1,6,1.6,285.3,M,-30.7,M,,*5F,,,,,
$GPGSA,A,3,21,18,15,24,22,3,,,,,,,2.6,1.6,02.1*09,,
$GPGSV,3,1,12,21,85,281,44,18,65,283,45,15,52,61,41,24,46,124,39*77
$GPGSV,3,2,12,22,26,264,37,3,17,313,37,8,15,50,,9,14,138,*74
$GPGSV,3,3,12,29,10,40,30,16,1,302,,19,0,332,,0,0,0,*7A
$GPRMC,140415.24,A,4455.6487,N,9329.5098,W,19.4,90.7,40608,1.2,E,A*27,,,,,,,
$GPGGA,140415.24,4455.6487,N,9329.5098,W,1,5,2.3,285.2,M,-30.7,M,,*55,,,,,
$GPGSA,A,3,21,18,15,24,22,,,,,,,,3.6,2.3,02.7*0B,,
$GPGSV,3,1,12,21,85,281,44,18,65,283,44,15,52,61,41,24,46,124,39*76
$GPGSV,3,2,12,22,26,264,37,3,17,313,34,8,15,50,,9,14,138,*77
$GPGSV,3,3,12,29,10,40,27,16,1,302,,19,0,332,,0,0,0,*7C
$GPRMC,140416.24,A,4455.6487,N,9329.5023,W,21.2,91.4,40608,1.2,E,A*2B,,,,,,,
$GPGGA,140416.24,4455.6487,N,9329.5023,W,1,5,2.3,285,M,-30.7,M,,*54,,,,,
$GPGSA,A,3,21,18,15,24,22,,,,,,,,3.6,2.3,02.7*0B,,
$GPGSV,3,1,12,21,85,281,44,18,65,283,44,15,52,61,42,24,46,124,39*75
$GPGSV,3,2,12,22,26,264,37,3,17,313,31,8,15,50,,9,14,138,*72
$GPGSV,3,3,12,29,10,40,24,16,1,302,,19,0,332,,0,0,0,*7F
$GPRMC,140417.24,A,4455.6486,N,9329.4935,W,22.1,91.4,40608,1.2,E,A*24,,,,,,,
$GPGGA,140417.24,4455.6486,N,9329.4935,W,1,6,1.6,283.9,M,-30.7,M,,*51,,,,,
$GPGSA,A,3,21,18,15,24,22,3,,,,,,,2.6,1.6,02.1*09,,
$GPGSV,3,1,12,21,85,281,44,18,65,283,44,15,52,61,42,24,46,124,39*75
$GPGSV,3,2,12,22,26,264,37,3,17,313,33,8,15,50,,9,14,138,*70
$GPGSV,3,3,12,29,10,40,23,16,1,302,,19,0,332,,0,0,0,*78
$GPRMC,140418.24,A,4455.6479,N,9329.4846,W,24,91.4,40608,1.2,E,A*29,,,,,,,
$GPGGA,140418.24,4455.6479,N,9329.4846,W,1,6,1.6,283.3,M,-30.7,M,,*51,,,,,
$GPGSA,A,3,21,18,15,24,22,3,,,,,,,2.6,1.6,02.1*09,,
$GPGSV,3,1,12,21,85,281,44,18,65,283,44,15,52,61,41,24,46,124,39*76
$GPGSV,3,2,12,22,26,264,37,3,17,313,34,8,15,50,,9,14,138,*77
$GPGSV,3,3,12,29,10,40,25,16,1,302,,19,0,332,,0,0,0,*7E
$GPRMC,140419.24,A,4455.6469,N,9329.4749,W,24.2,91.8,40608,1.2,E,A*27,,,,,,,
$GPGGA,140419.24,4455.6469,N,9329.4749,W,1,6,1.6,282.9,M,-30.7,M,,*5A,,,,,
$GPGSA,A,3,21,18,15,24,22,3,,,,,,,2.6,1.6,02.1*09,,
$GPGSV,3,1,12,21,85,281,43,18,65,283,45,15,52,61,40,24,46,124,39*71
$GPGSV,3,2,12,22,26,264,37,3,17,313,35,8,15,50,,9,14,138,*76
$GPGSV,3,3,12,29,10,40,25,16,1,302,,19,0,332,,0,0,0,*7E
$GPRMC,140420.24,A,4455.6467,N,9329.4647,W,26,91.9,40608,1.2,E,A*2D,,,,,,,
$GPGGA,140420.24,4455.6467,N,9329.4647,W,1,5,2.3,281.8,M,-30.7,M,,*56,,,,,
$GPGSA,A,3,21,18,15,24,22,,,,,,,,3.6,2.3,02.7*0B,,
$GPGSV,3,1,12,21,85,281,43,18,65,283,45,15,52,61,39,24,46,124,39*7F
$GPGSV,3,2,12,22,26,264,38,3,17,313,35,8,15,50,,9,14,138,*79
$GPGSV,3,3,12,29,10,40,24,16,1,302,,19,0,332,,0,0,0,*7F
$GPRMC,140421.24,A,4455.646,N,9329.4547,W,26.1,91.7,40608,1.2,E,A*27,,,,,,,
$GPGGA,140421.24,4455.646,N,9329.4547,W,1,6,1.6,282.7,M,-30.7,M,,*5A,,,,,
$GPGSA,A,3,21,18,15,24,22,3,,,,,,,2.6,1.6,02.1*09,,
$GPGSV,3,1,12,21,85,281,43,18,65,283,46,15,52,61,38,24,46,124,39*7D
$GPGSV,3,2,12,22,26,264,38,3,18,313,35,8,15,50,,9,14,138,*76
$GPGSV,3,3,12,29,10,40,25,16,1,302,,19,0,332,,0,0,0,*7E
$GPRMC,140422.24,A,4455.6455,N,9329.4444,W,26.2,91.9,40608,1.2,E,A*2D,,,,,,,
$GPGGA,140422.24,4455.6455,N,9329.4444,W,1,5,2.3,283.2,M,-30.7,M,,*5C,,,,,
$GPGSA,A,3,21,18,15,24,22,,,,,,,,3.6,2.3,02.7*0B,,
$GPGSV,3,1,12,21,85,281,42,18,65,283,46,15,52,61,37,24,46,124,39*73
$GPGSV,3,2,12,22,26,264,39,3,18,313,34,8,15,50,,9,14,138,*76
$GPGSV,3,3,12,29,10,40,26,16,1,302,,19,0,332,,0,0,0,*7D
$GPRMC,140423.24,A,4455.6454,N,9329.4342,W,26.4,91.8,40608,1.2,E,A*2B,,,,,,,
$GPGGA,140423.24,4455.6454,N,9329.4342,W,1,5,2.3,284.1,M,-30.7,M,,*59,,,,,
$GPGSA,A,3,21,18,15,24,22,,,,,,,,3.6,2.3,02.7*0B,,
$GPGSV,3,1,12,21,85,281,42,18,65,283,47,15,52,61,37,24,46,124,38*73
$GPGSV,3,2,12,22,26,264,39,3,18,313,33,8,15,50,,9,14,138,*71
$GPGSV,3,3,12,29,10,40,24,16,1,302,,19,0,332,,0,0,0,*7F
$GPRMC,140424.24,A,4455.6448,N,9329.4238,W,26,91.6,40608,1.2,E,A*27,,,,,,,
$GPGGA,140424.24,4455.6448,N,9329.4238,W,1,6,1.6,284.3,M,-30.7,M,,*58,,,,,
$GPGSA,A,3,21,18,15,24,22,3,,,,,,,2.6,1.6,02.1*09,,
$GPGSV,3,1,12,21,85,281,41,18,65,283,47,15,52,61,37,24,46,124,38*70
$GPGSV,3,2,12,22,26,264,39,3,18,313,33,8,15,50,,9,14,138,*71
$GPGSV,3,3,12,29,10,40,23,16,1,302,,19,0,332,,0,0,0,*78
$GPRMC,140425.24,A,4455.6446,N,9329.4136,W,25.2,91.7,40608,1.2,E,A*25,,,,,,,
$GPGGA,140425.24,4455.6446,N,9329.4136,W,1,6,1.6,283.6,M,-30.7,M,,*58,,,,,
$GPGSA,A,3,21,18,15,24,22,3,,,,,,,2.6,1.6,02.1*09,,
$GPGSV,3,1,12,21,85,281,41,18,65,283,47,15,52,61,37,24,46,124,38*70
$GPGSV,3,2,12,22,26,264,39,3,18,313,32,8,15,50,,9,14,138,*70
$GPGSV,3,3,12,29,10,40,22,16,1,302,,19,0,332,,0,0,0,*79
$GPRMC,140426.24,A,4455.6439,N,9329.4038,W,24.8,92.6,40608,1.2,E,A*28,,,,,,,
$GPGGA,140426.24,4455.6439,N,9329.4038,W,1,5,2.3,284.9,M,-30.7,M,,*51,,,,,
$GPGSA,A,3,21,18,15,24,22,,,,,,,,3.6,2.3,02.7*0B,,
$GPGSV,3,1,12,21,85,281,40,18,65,283,47,15,52,61,37,24,46,124,37*7E
$GPGSV,3,2,12,22,26,264,39,3,18,313,31,8,15,50,,9,14,138,*73
$GPGSV,3,3,12,29,10,40,22,16,1,302,,19,0,332,,0,0,0,*79
$GPRMC,140427.24,A,4455.6437,N,9329.3941,W,24.8,91.9,40608,1.2,E,A*2B,,,,,,,
$GPGGA,140427.24,4455.6437,N,9329.3941,W,1,5,2.3,286,M,-30.7,M,,*55,,,,,
$GPGSA,A,3,21,18,15,24,22,,,,,,,,3.6,2.3,02.7*0B,,
$GPGSV,3,1,12,21,85,281,40,18,65,283,47,15,52,61,37,24,46,124,37*7E
$GPGSV,3,2,12,22,26,264,40,3,18,313,30,8,15,50,,9,14,138,*7C
$GPGSV,3,3,12,29,10,40,20,16,1,302,,19,0,332,,0,0,0,*7B
$GPRMC,140428.24,A,4455.6434,N,9329.3845,W,25,91.7,40608,1.2,E,A*25,,,,,,,
$GPGGA,140428.24,4455.6434,N,9329.3845,W,1,5,5.5,286.8,M,-30.7,M,,*55,,,,,
$GPGSA,A,3,21,18,15,24,22,,,,,,,,6.1,5.5,02.7*08,,
$GPGSV,3,1,12,21,85,281,39,18,65,283,47,15,52,61,36,24,46,124,36*70
$GPGSV,3,2,12,22,26,264,39,3,18,313,26,8,15,50,,9,14,138,*75
$GPGSV,3,3,12,29,10,40,19,16,1,302,,19,0,332,,0,0,0,*71
$GPRMC,140429.24,A,4455.6437,N,9329.3748,W,25.1,91.7,40608,1.2,E,A*24,,,,,,,
$GPGGA,140429.24,4455.6437,N,9329.3748,W,1,5,5.5,287.6,M,-30.7,M,,*5A,,,,,
$GPGSA,A,3,21,18,15,24,22,,,,,,,,6.2,5.5,02.8*04,,
$GPGSV,3,1,12,21,85,281,37,18,65,283,47,15,52,61,34,24,46,124,34*7E
$GPGSV,3,2,12,22,26,264,38,3,18,313,24,8,15,50,,9,14,138,*76
$GPGSV,3,3,12,29,10,40,19,16,1,302,,19,0,332,,0,0,0,*71
$GPRMC,140430.24,A,4455.6434,N,9329.3643,W,25.2,90.5,40608,1.2,E,A*25,,,,,,,
$GPGGA,140430.24,4455.6434,N,9329.3643,W,1,6,1.6,286.8,M,-30.7,M,,*50,,,,,
$GPGSA,A,3,21,18,15,24,22,3,,,,,,,2.6,1.6,02.1*09,,
$GPGSV,3,1,12,21,85,281,38,18,65,283,47,15,52,61,34,24,46,124,36*73
$GPGSV,3,2,12,22,26,264,39,3,18,313,27,8,15,50,,9,14,138,*74
$GPGSV,3,3,12,29,10,40,22,16,1,302,,19,0,332,,0,0,0,*79
$GPRMC,140431.24,A,4455.6428,N,9329.3544,W,25.1,91.5,40608,1.2,E,A*2F,,,,,,,
$GPGGA,140431.24,4455.6428,N,9329.3544,W,1,5,2.3,287.9,M,-30.7,M,,*5D,,,,,
$GPGSA,A,3,21,18,15,24,22,,,,,,,,3.6,2.3,02.7*0B,,
$GPGSV,3,1,12,21,85,281,39,18,65,283,47,15,52,61,35,24,46,124,37*72
$GPGSV,3,2,12,22,26,264,39,3,18,313,26,8,15,50,,9,14,138,*75
$GPGSV,3,3,12,29,10,40,24,16,1,302,,19,0,332,,0,0,0,*7F
$GPRMC,140432.24,A,4455.6426,N,9329.3449,W,24.8,91.9,40608,1.2,E,A*2A,,,,,,,
$GPGGA,140432.24,4455.6426,N,9329.3449,W,1,5,2.3,288.1,M,-30.7,M,,*5B,,,,,
$GPGSA,A,3,21,18,15,24,22,,,,,,,,3.6,2.3,02.7*0B,,
$GPGSV,3,1,12,21,85,281,39,18,65,283,47,15,51,61,35,24,46,124,38*7E
$GPGSV,3,2,12,22,26,264,39,3,18,313,24,8,15,50,,9,14,138,*77
$GPGSV,3,3,12,29,10,40,24,16,1,302,,19,0,332,,0,0,0,*7F
$GPRMC,140433.24,A,4455.6429,N,9329.3348,W,24.4,92,40608,1.2,E,A*24,,,,,,,
$GPGGA,140433.24,4455.6429,N,9329.3348,W,1,5,5.5,288.2,M,-30.7,M,,*51,,,,,
$GPGSA,A,3,21,18,15,24,22,,,,,,,,6.1,5.5,02.7*08,,
$GPGSV,3,1,12,21,85,281,38,18,65,283,47,15,51,61,33,24,46,124,37*76
$GPGSV,3,2,12,22,26,264,39,3,18,313,23,8,15,50,,9,14,138,*70
$GPGSV,3,3,12,29,10,40,24,16,1,302,,19,0,332,,0,0,0,*7F
$GPRMC,140434.24,A,4455.6419,N,9329.3258,W,23.2,93.7,40608,1.2,E,A*27,,,,,,,
$GPGGA,140434.24,4455.6419,N,9329.3258,W,1,5,2.3,289,M,-30.7,M,,*57,,,,,
$GPGSA,A,3,21,18,15,24,22,,,,,,,,3.6,2.3,02.7*0B,,
$GPGSV,3,1,12,21,85,281,39,18,65,284,47,15,51,61,34,24,46,124,37*77
$GPGSV,3,2,12,22,26,264,39,3,18,313,25,8,15,50,,9,14,138,*76
$GPGSV,3,3,12,29,10,40,23,16,1,302,,19,0,332,,0,0,0,*78
$GPRMC,140435.24,A,4455.6422,N,9329.3172,W,23.1,93.3,40608,1.2,E,A*22,,,,,,,
$GPGGA,140435.24,4455.6422,N,9329.3172,W,1,4,8.6,290.3,M,-30.7,M,,*50,,,,,
$GPGSA,A,3,21,18,15,,22,,,,,,,,9.1,8.6,03.0*09,,
$GPGSV,3,1,12,21,85,281,39,18,65,284,47,15,51,61,34,24,46,124,36*76
$GPGSV,3,2,12,22,26,264,39,3,18,313,25,8,15,50,,9,14,138,*76
$GPGSV,3,3,12,29,10,40,22,16,1,302,,19,0,332,,0,0,0,*79
$GPRMC,140436.24,A,4455.6422,N,9329.3085,W,22.9,93.1,40608,1.2,E,A*23,,,,,,,
$GPGGA,140436.24,4455.6422,N,9329.3085,W,1,4,8.6,291.8,M,-30.7,M,,*50,,,,,
$GPGSA,A,3,21,18,15,,22,,,,,,,,9.1,8.6,03.0*09,,
$GPGSV,3,1,12,21,85,281,39,18,65,284,47,15,51,61,35,24,46,124,36*77
$GPGSV,3,2,12,22,26,264,39,3,18,313,28,8,15,50,,9,14,138,*7B
$GPGSV,3,3,12,29,10,40,22,16,1,302,,19,0,332,,0,0,0,*79
$GPRMC,140437.24,A,4455.6412,N,9329.2999,W,22.6,93,40608,1.2,E,A*2A,,,,,,,
$GPGGA,140437.24,4455.6412,N,9329.2999,W,1,4,5.8,293.1,M,-30.7,M,,*5F,,,,,
$GPGSA,A,3,21,18,15,,22,,,,,,,,6.5,5.8,03.0*01,,
$GPGSV,3,1,12,21,85,279,38,18,65,284,47,15,51,61,34,24,46,124,35*73
$GPGSV,3,2,12,22,26,264,39,3,18,313,28,8,15,50,,9,14,138,*7B
$GPGSV,3,3,12,29,10,40,22,16,1,302,,19,0,332,,0,0,0,*79
$GPRMC,140438.24,A,4455.6406,N,9329.2912,W,22.5,92.9,40608,1.2,E,A*28,,,,,,,
$GPGGA,140438.24,4455.6406,N,9329.2912,W,1,5,2.3,293.9,M,-30.7,M,,*53,,,,,
$GPGSA,A,3,21,18,15,24,22,,,,,,,,3.6,2.3,02.7*0B,,
$GPGSV,3,1,12,21,85,279,38,18,65,284,47,15,51,61,35,24,46,124,36*71
$GPGSV,3,2,12,22,26,264,39,3,18,313,28,8,15,50,,9,14,138,*7B
$GPGSV,3,3,12,29,10,40,23,16,1,302,,19,0,332,,0,0,0,*78
$GPRMC,140439.24,A,4455.64,N,9329.2825,W,22.4,92.7,40608,1.2,E,A*25,,,,,,,
$GPGGA,140439.24,4455.64,N,9329.2825,W,1,5,2.3,294.5,M,-30.7,M,,*5A,,,,,
$GPGSA,A,3,21,18,15,24,22,,,,,,,,3.6,2.3,02.7*0B,,
$GPGSV,3,1,12,21,85,279,39,18,65,284,47,15,51,61,35,24,46,124,37*71
$GPGSV,3,2,12,22,26,264,39,3,18,313,25,8,15,50,,9,14,138,*76
$GPGSV,3,3,12,29,10,40,24,16,1,302,,19,0,332,,0,0,0,*7F
$GPRMC,140440.24,A,4455.6395,N,9329.2735,W,22.4,92.4,40608,1.2,E,A*2D,,,,,,,
$GPGGA,140440.24,4455.6395,N,9329.2735,W,1,5,2.3,295.1,M,-30.7,M,,*54,,,,,
$GPGSA,A,3,21,18,15,24,22,,,,,,,,3.6,2.3,02.7*0B,,
$GPGSV,3,1,12,21,85,279,39,18,65,284,47,15,51,61,36,24,46,125,38*7C
$GPGSV,3,2,12,22,26,264,39,3,18,313,25,8,15,50,,9,14,138,*76
$GPGSV,3,3,12,29,10,40,23,16,1,302,,19,0,332,,0,0,0,*78
$GPRMC,140441.24,A,4455.6394,N,9329.2649,W,22.5,92.2,40608,1.2,E,A*20,,,,,,,
$GPGGA,140441.24,4455.6394,N,9329.2649,W,1,5,2.3,295.3,M,-30.7,M,,*5C,,,,,
$GPGSA,A,3,21,18,15,24,22,,,,,,,,3.6,2.3,02.7*0B,,
$GPGSV,3,1,12,21,85,279,38,18,65,284,47,15,51,61,36,24,46,125,38*7D
$GPGSV,3,2,12,22,26,264,39,3,18,313,26,8,15,50,,9,14,138,*75
$GPGSV,3,3,12,29,10,40,24,16,1,302,,19,0,332,,0,0,0,*7F
$GPRMC,140442.24,A,4455.6389,N,9329.256,W,22.7,92,40608,1.2,E,A*27,,,,,,,
$GPGGA,140442.24,4455.6389,N,9329.256,W,1,5,2.3,296.2,M,-30.7,M,,*59,,,,,
$GPGSA,A,3,21,18,15,24,22,,,,,,,,3.5,2.3,02.7*08,,
$GPGSV,3,1,12,21,85,279,38,18,65,284,47,15,51,61,36,24,46,125,38*7D
$GPGSV,3,2,12,22,26,264,38,3,18,313,26,8,15,50,,9,14,138,*74
$GPGSV,3,3,12,29,10,40,29,16,1,302,,19,0,332,,0,0,0,*72
$GPRMC,140443.24,A,4455.6378,N,9329.2469,W,22.8,92.6,40608,1.2,E,A*29,,,,,,,
$GPGGA,140443.24,4455.6378,N,9329.2469,W,1,5,2.3,297.4,M,-30.7,M,,*59,,,,,
$GPGSA,A,3,21,18,15,24,22,,,,,,,,3.5,2.3,02.7*08,,
$GPGSV,3,1,12,21,85,279,38,18,65,284,47,15,51,61,36,24,46,125,37*72
$GPGSV,3,2,12,22,26,264,38,3,18,313,25,8,15,50,,9,14,138,*77
$GPGSV,3,3,12,29,10,40,29,16,1,302,,19,0,332,,0,0,0,*72
$GPRMC,140444.24,A,4455.6381,N,9329.2374,W,23.4,92.9,40608,1.2,E,A*21,,,,,,,
$GPGGA,140444.24,4455.6381,N,9329.2374,W,1,5,2.3,297.3,M,-30.7,M,,*54,,,,,
$GPGSA,A,3,21,18,15,24,22,,,,,,,,3.5,2.3,02.7*08,,
$GPGSV,3,1,12,21,85,279,39,18,65,284,46,15,51,61,37,24,46,125,37*73
$GPGSV,3,2,12,22,26,264,39,3,18,313,25,8,15,50,,9,14,138,*76
$GPGSV,3,3,12,29,10,40,28,16,1,302,,19,0,332,,0,0,0,*73
$GPRMC,140445.24,A,4455.6374,N,9329.2279,W,24.2,92.8,40608,1.2,E,A*26,,,,,,,
$GPGGA,140445.24,4455.6374,N,9329.2279,W,1,5,2.3,298.3,M,-30.7,M,,*5C,,,,,
$GPGSA,A,3,21,18,15,24,22,,,,,,,,3.5,2.3,02.7*08,,
$GPGSV,3,1,12,21,85,279,40,18,65,284,46,15,51,61,37,24,46,125,37*7D
$GPGSV,3,2,12,22,26,264,39,3,18,313,25,8,15,50,,9,14,138,*76
$GPGSV,3,3,12,29,10,40,27,16,1,302,,19,0,332,,0,0,0,*7C
$GPRMC,140446.24,A,4455.6367,N,9329.2179,W,24.4,92.1,40608,1.2,E,A*2B,,,,,,,
$GPGGA,140446.24,4455.6367,N,9329.2179,W,1,6,1.6,297.1,M,-30.7,M,,*56,,,,,
$GPGSA,A,3,21,18,15,24,22,3,,,,,,,2.6,1.6,02.1*09,,
$GPGSV,3,1,12,21,85,279,40,18,65,284,46,15,51,61,38,24,46,125,38*7D
$GPGSV,3,2,12,22,26,264,39,3,18,313,27,8,15,50,,9,14,138,*74
$GPGSV,3,3,12,29,10,40,26,16,1,302,,19,0,332,,0,0,0,*7D
$GPRMC,140447.24,A,4455.6363,N,9329.2076,W,25.3,91.8,40608,1.2,E,A*2C,,,,,,,
$GPGGA,140447.24,4455.6363,N,9329.2076,W,1,6,1.6,297.5,M,-30.7,M,,*59,,,,,
$GPGSA,A,3,21,18,15,24,22,3,,,,,,,2.6,1.6,02.1*09,,
$GPGSV,3,1,12,21,85,279,41,18,65,284,46,15,51,61,39,24,46,125,38*7D
$GPGSV,3,2,12,22,26,264,39,3,18,313,29,8,15,50,,9,14,138,*7A
$GPGSV,3,3,12,29,10,40,30,16,1,302,,19,0,332,,0,0,0,*7A
$GPRMC,140448.24,A,4455.6359,N,9329.1976,W,25.4,91.7,40608,1.2,E,A*28,,,,,,,
$GPGGA,140448.24,4455.6359,N,9329.1976,W,1,5,2.3,298.1,M,-30.7,M,,*5B,,,,,
$GPGSA,A,3,21,18,15,24,22,,,,,,,,3.5,2.3,02.7*08,,
$GPGSV,3,1,12,21,85,279,41,18,65,284,46,15,51,61,39,24,46,125,38*7D
$GPGSV,3,2,12,22,26,264,39,3,18,313,29,8,15,50,,9,14,138,*7A
$GPGSV,3,3,12,29,10,40,33,16,1,302,,19,0,332,,0,0,0,*79
$GPRMC,140449.24,A,4455.6355,N,9329.1877,W,25.5,91.7,40608,1.2,E,A*24,,,,,,,
$GPGGA,140449.24,4455.6355,N,9329.1877,W,1,6,1.6,298.8,M,-30.7,M,,*5A,,,,,
$GPGSA,A,3,21,18,15,24,22,3,,,,,,,2.6,1.6,02.1*09,,
$GPGSV,3,1,12,21,85,279,41,18,65,284,46,15,51,61,38,24,46,125,38*7C
$GPGSV,3,2,12,22,26,264,39,3,18,313,29,8,15,50,,9,14,138,*7A
$GPGSV,3,3,12,29,10,40,34,16,1,302,,19,0,332,,0,0,0,*7E
$GPRMC,140450.24,A,4455.6355,N,9329.1779,W,25.5,91.7,40608,1.2,E,A*2D,,,,,,,
$GPGGA,140450.24,4455.6355,N,9329.1779,W,1,6,1.6,300,M,-30.7,M,,*5B,,,,,
$GPGSA,A,3,21,18,15,24,22,3,,,,,,,2.6,1.6,02.1*09,,
$GPGSV,3,1,12,21,85,279,42,18,65,284,46,15,51,61,38,24,46,125,39*7E
$GPGSV,3,2,12,22,26,264,39,3,18,313,30,8,15,50,,9,14,138,*72
$GPGSV,3,3,12,29,10,40,34,16,1,302,,19,0,332,,0,0,0,*7E
$GPRMC,140451.24,A,4455.6349,N,9329.1679,W,25.4,91.8,40608,1.2,E,A*2E,,,,,,,
$GPGGA,140451.24,4455.6349,N,9329.1679,W,1,6,4.8,300.6,M,-30.7,M,,*5B,,,,,
$GPGSA,A,3,21,18,15,24,22,3,,,,,,,5.3,4.8,02.1*00,,
$GPGSV,3,1,12,21,85,279,42,18,65,284,46,15,51,61,37,24,46,125,39*71
$GPGSV,3,2,12,22,26,264,38,3,18,313,29,8,15,50,,9,14,138,*7B
$GPGSV,3,3,12,29,10,40,32,16,1,302,,19,0,332,,0,0,0,*78
$GPRMC,140452.24,A,4455.6344,N,9329.1579,W,25.5,91.8,40608,1.2,E,A*22,,,,,,,
$GPGGA,140452.24,4455.6344,N,9329.1579,W,1,5,2.3,300.7,M,-30.7,M,,*59,,,,,
$GPGSA,A,3,21,18,15,24,22,,,,,,,,3.5,2.3,02.7*08,,
$GPGSV,3,1,12,21,85,279,42,18,65,284,45,15,51,61,37,24,46,125,39*72
$GPGSV,3,2,12,22,26,264,38,3,18,313,28,8,15,50,,9,14,138,*7A
$GPGSV,3,3,12,29,10,40,31,16,1,302,,19,0,332,,0,0,0,*7B
$GPRMC,140453.24,A,4455.6341,N,9329.1478,W,25.7,91.7,40608,1.2,E,A*2B,,,,,,,
$GPGGA,140453.24,4455.6341,N,9329.1478,W,1,5,2.3,300.9,M,-30.7,M,,*53,,,,,
$GPGSA,A,3,21,18,15,24,22,,,,,,,,3.5,2.3,02.7*08,,
$GPGSV,3,1,12,21,85,279,42,18,65,284,45,15,51,61,37,24,46,125,39*72
$GPGSV,3,2,12,22,26,264,38,3,18,313,28,8,15,50,,9,14,138,*7A
$GPGSV,3,3,12,29,10,40,32,16,1,302,,19,0,332,,0,0,0,*78
$GPRMC,140454.24,A,4455.6337,N,9329.1378,W,25.9,91.6,40608,1.2,E,A*25,,,,,,,
$GPGGA,140454.24,4455.6337,N,9329.1378,W,1,5,2.3,300.4,M,-30.7,M,,*5F,,,,,
$GPGSA,A,3,21,18,15,24,22,,,,,,,,3.5,2.3,02.7*08,,
$GPGSV,3,1,12,21,85,279,42,18,65,284,44,15,51,61,39,24,46,125,39*7D
$GPGSV,3,2,12,22,26,264,38,3,18,313,27,8,15,50,,9,14,138,*75
$GPGSV,3,3,12,29,10,40,31,16,1,302,,19,0,332,,0,0,0,*7B
$GPRMC,140455.24,A,4455.633,N,9329.1276,W,25.8,91.6,40608,1.2,E,A*2D,,,,,,,
$GPGGA,140455.24,4455.633,N,9329.1276,W,1,5,2.3,300.7,M,-30.7,M,,*55,,,,,
$GPGSA,A,3,21,18,15,24,22,,,,,,,,3.5,2.3,02.7*08,,
$GPGSV,3,1,12,21,85,279,42,18,65,284,44,15,51,61,40,24,46,125,40*7D
$GPGSV,3,2,12,22,26,264,38,3,18,313,26,8,15,50,,9,14,138,*74
$GPGSV,3,3,12,29,10,40,28,16,1,302,,19,0,332,,0,0,0,*73
$GPRMC,140456.24,A,4455.6324,N,9329.1176,W,25.7,91.7,40608,1.2,E,A*26,,,,,,,
$GPGGA,140456.24,4455.6324,N,9329.1176,W,1,5,2.3,301,M,-30.7,M,,*56,,,,,
$GPGSA,A,3,21,18,15,24,22,,,,,,,,3.5,2.3,02.7*08,,
$GPGSV,3,1,12,21,85,279,43,18,65,284,44,15,51,61,41,24,46,125,40*7D
$GPGSV,3,2,12,22,26,264,38,3,18,313,24,8,15,50,,9,14,138,*76
$GPGSV,3,3,12,29,10,40,27,16,1,302,,19,0,332,,0,0,0,*7C
$GPRMC,140457.24,A,4455.6322,N,9329.1078,W,25.6,91.8,40608,1.2,E,A*20,,,,,,,
$GPGGA,140457.24,4455.6322,N,9329.1078,W,1,5,2.3,299.8,M,-30.7,M,,*56,,,,,
$GPGSA,A,3,21,18,15,24,22,,,,,,,,3.5,2.3,02.7*08,,
$GPGSV,3,1,12,21,85,279,43,18,65,284,44,15,51,61,42,24,46,125,41*7F
$GPGSV,3,2,12,22,26,264,37,3,18,313,26,8,15,50,,9,14,138,*7B
$GPGSV,3,3,12,29,10,40,29,16,1,302,,19,0,332,,0,0,0,*72
$GPRMC,140458.24,A,4455.6317,N,9329.098,W,25.4,91.9,40608,1.2,E,A*25,,,,,,,
$GPGGA,140458.24,4455.6317,N,9329.098,W,1,5,2.3,298.6,M,-30.7,M,,*5F,,,,,
$GPGSA,A,3,21,18,15,24,22,,,,,,,,3.5,2.3,02.7*08,,
$GPGSV,3,1,12,21,85,279,43,18,65,284,44,15,51,61,42,24,46,125,41*7F
$GPGSV,3,2,12,22,26,264,36,3,18,313,26,8,15,50,,9,14,138,*7A
$GPGSV,3,3,12,29,10,40,28,16,1,302,,19,0,332,,0,0,0,*73
$GPRMC,140459.24,A,4455.6321,N,9329.0882,W,25.1,91.7,40608,1.2,E,A*29,,,,,,,
$GPGGA,140459.24,4455.6321,N,9329.0882,W,1,6,1.6,298.2,M,-30.7,M,,*59,,,,,
$GPGSA,A,3,21,18,15,24,22,3,,,,,,,2.6,1.6,02.1*09,,
$GPGSV,3,1,12,21,85,279,43,18,65,284,44,15,51,61,43,24,46,125,41*7E
$GPGSV,3,2,12,22,26,264,36,3,18,313,28,8,15,50,,9,14,138,*74
$GPGSV,3,3,12,29,10,40,26,16,1,302,,19,0,332,,0,0,0,*7D
$GPRMC,140500.24,A,4455.6316,N,9329.0786,W,24.8,91.8,40608,1.2,E,A*2C,,,,,,,
$GPGGA,140500.24,4455.6316,N,9329.0786,W,1,5,2.3,298,M,-30.7,M,,*5C,,,,,
$GPGSA,A,3,21,18,15,24,22,,,,,,,,3.5,2.3,02.7*08,,
$GPGSV,3,1,12,21,85,279,43,18,65,284,44,15,51,61,43,24,46,125,41*7E
$GPGSV,3,2,12,22,26,264,36,3,18,313,31,8,15,50,,9,14,138,*7C
$GPGSV,3,3,12,29,10,40,25,16,1,302,,19,0,332,,0,0,0,*7E
$GPRMC,140501.24,A,4455.6313,N,9329.0691,W,23.9,92.2,40608,1.2,E,A*20,,,,,,,
$GPGGA,140501.24,4455.6313,N,9329.0691,W,1,5,2.3,298.2,M,-30.7,M,,*5D,,,,,
$GPGSA,A,3,21,18,15,24,22,,,,,,,,3.5,2.3,02.7*08,,
$GPGSV,3,1,12,21,85,279,43,18,65,284,44,15,51,61,43,24,46,125,41*7E
$GPGSV,3,2,12,22,26,264,36,3,18,313,30,8,15,50,,9,14,138,*7D
$GPGSV,3,3,12,29,10,40,25,16,1,302,,19,0,332,,0,0,0,*7E
$GPRMC,140502.24,A,4455.6307,N,9329.0599,W,23.7,92.2,40608,1.2,E,A*23,,,,,,,
$GPGGA,140502.24,4455.6307,N,9329.0599,W,1,5,2.3,298,M,-30.7,M,,*52,,,,,
$GPGSA,A,3,21,18,15,24,22,,,,,,,,3.5,2.3,02.7*08,,
$GPGSV,3,1,12,21,85,279,43,18,65,284,44,15,51,61,43,24,46,125,41*7E
$GPGSV,3,2,12,22,26,264,36,3,18,313,29,8,15,50,,9,14,138,*75
$GPGSV,3,3,12,29,10,40,30,16,1,302,,19,0,332,,0,0,0,*7A
$GPRMC,140503.24,A,4455.6304,N,9329.0508,W,23.4,92.1,40608,1.2,E,A*29,,,,,,,
$GPGGA,140503.24,4455.6304,N,9329.0508,W,1,5,2.3,297.7,M,-30.7,M,,*50,,,,,
$GPGSA,A,3,21,18,15,24,22,,,,,,,,3.5,2.3,02.7*08,,
$GPGSV,3,1,12,21,85,279,43,18,65,284,44,15,51,61,43,24,46,125,41*7E
$GPGSV,3,2,12,22,26,264,36,3,18,313,29,8,15,50,,9,14,138,*75
$GPGSV,3,3,12,29,10,40,32,16,1,302,,19,0,332,,0,0,0,*78
$GPRMC,140504.24,A,4455.6304,N,9329.0418,W,23,92,40608,1.2,E,A*2B,,,,,,,
$GPGGA,140504.24,4455.6304,N,9329.0418,W,1,5,2.3,297.1,M,-30.7,M,,*51,,,,,
$GPGSA,A,3,21,18,15,24,22,,,,,,,,3.5,2.3,02.7*08,,
$GPGSV,3,1,12,21,85,279,43,18,65,284,44,15,51,61,42,24,46,125,41*7F
$GPGSV,3,2,12,22,26,264,36,3,18,313,27,8,15,50,,9,14,138,*7B
$GPGSV,3,3,12,29,10,40,32,16,1,302,,19,0,332,,0,0,0,*78
$GPRMC,140505.24,A,4455.6303,N,9329.0328,W,22,92.1,40608,1.2,E,A*29,,,,,,,
$GPGGA,140505.24,4455.6303,N,9329.0328,W,1,5,2.3,296.6,M,-30.7,M,,*55,,,,,
$GPGSA,A,3,21,18,15,24,22,,,,,,,,3.5,2.3,02.7*08,,
$GPGSV,3,1,12,21,85,279,43,18,65,284,44,15,51,61,42,24,46,125,40*7E
$GPGSV,3,2,12,22,26,264,36,3,18,313,28,8,15,50,,9,14,138,*74
$GPGSV,3,3,12,29,10,40,31,16,1,302,,19,0,332,,0,0,0,*7B
$GPRMC,140506.24,A,4455.6305,N,9329.0245,W,21.1,91.8,40608,1.2,E,A*2E,,,,,,,
$GPGGA,140506.24,4455.6305,N,9329.0245,W,1,6,1.6,297.7,M,-30.7,M,,*5F,,,,,
$GPGSA,A,3,21,18,15,24,22,3,,,,,,,2.6,1.6,02.1*09,,
$GPGSV,3,1,12,21,85,279,43,18,65,284,43,15,51,60,42,24,46,125,40*78
$GPGSV,3,2,12,22,26,264,36,3,18,313,31,8,15,50,,9,14,138,*7C
$GPGSV,3,3,12,29,10,40,33,16,1,302,,19,0,332,,0,0,0,*79
$GPRMC,140507.24,A,4455.6305,N,9329.0168,W,20,91.5,40608,1.2,E,A*2E,,,,,,,
$GPGGA,140507.24,4455.6305,N,9329.0168,W,1,6,1.6,298.7,M,-30.7,M,,*5D,,,,,
$GPGSA,A,3,21,18,15,24,22,3,,,,,,,2.6,1.6,02.1*09,,
$GPGSV,3,1,12,21,85,279,43,18,65,284,43,15,51,60,42,24,46,125,40*78
$GPGSV,3,2,12,22,26,264,36,3,18,313,32,8,15,50,,9,14,138,*7F
$GPGSV,3,3,12,29,10,40,31,16,0,301,,19,0,332,,0,0,0,*79
$GPRMC,140508.24,A,4455.6303,N,9329.0095,W,18.9,91.4,40608,1.2,E,A*27,,,,,,,
$GPGGA,140508.24,4455.6303,N,9329.0095,W,1,5,2.2,298.6,M,-30.7,M,,*52,,,,,
$GPGSA,A,3,21,18,15,24,22,,,,,,,,3.5,2.2,02.7*09,,
$GPGSV,3,1,12,21,85,279,43,18,65,284,43,15,51,60,43,24,46,125,40*79
$GPGSV,3,2,12,22,26,264,36,3,18,313,31,8,15,50,,9,14,138,*7C
$GPGSV,3,3,12,29,10,40,29,16,0,301,,19,0,332,,0,0,0,*70
$GPRMC,140509.24,A,4455.63,N,9329.0023,W,18.5,91.5,40608,1.2,E,A*25,,,,,,,
$GPGGA,140509.24,4455.63,N,9329.0023,W,1,5,2.2,298.4,M,-30.7,M,,*5F,,,,,
$GPGSA,A,3,21,18,15,24,22,,,,,,,,3.5,2.2,02.7*09,,
$GPGSV,3,1,12,21,85,279,43,18,65,284,43,15,51,60,43,24,46,125,40*79
$GPGSV,3,2,12,22,26,264,36,3,18,313,30,8,15,50,,9,14,138,*7D
$GPGSV,3,3,12,29,10,40,29,16,0,301,,19,0,332,,0,0,0,*70
$GPRMC,140510.24,A,4455.6298,N,9328.9951,W,18.1,91.6,40608,1.2,E,A*2E,,,,,,,
$GPGGA,140510.24,4455.6298,N,9328.9951,W,1,5,2.2,298.1,M,-30.7,M,,*56,,,,,
$GPGSA,A,3,21,18,15,24,22,,,,,,,,3.5,2.2,02.7*09,,
$GPGSV,3,1,12,21,85,279,43,18,65,284,43,15,51,60,43,24,46,125,40*79
$GPGSV,3,2,12,22,26,264,36,3,18,313,29,8,15,50,,9,14,138,*75
$GPGSV,3,3,12,29,10,40,31,16,0,301,,19,0,332,,0,0,0,*79
$GPRMC,140511.24,A,4455.6294,N,9328.9884,W,16.6,92,40608,1.2,E,A*26,,,,,,,
$GPGGA,140511.24,4455.6294,N,9328.9884,W,1,5,2.2,298.3,M,-30.7,M,,*50,,,,,
$GPGSA,A,3,21,18,15,24,22,,,,,,,,3.5,2.2,02.7*09,,
$GPGSV,3,1,12,21,86,276,43,18,65,284,43,15,51,60,43,24,46,125,40*75
$GPGSV,3,2,12,22,26,264,36,3,18,313,29,8,15,50,,9,14,138,*75
$GPGSV,3,3,12,29,10,40,31,16,0,301,,19,0,332,,0,0,0,*79
$GPRMC,140512.24,A,4455.6292,N,9328.9825,W,14.5,92.3,40608,1.2,E,A*2A,,,,,,,
$GPGGA,140512.24,4455.6292,N,9328.9825,W,1,5,2.2,297.9,M,-30.7,M,,*5B,,,,,
$GPGSA,A,3,21,18,15,24,22,,,,,,,,3.5,2.2,02.7*09,,
$GPGSV,3,1,12,21,86,276,43,18,65,284,43,15,51,60,43,24,46,125,40*75
$GPGSV,3,2,12,22,26,264,36,3,18,313,29,8,15,50,,9,14,138,*75
$GPGSV,3,3,12,29,10,40,33,16,0,301,,19,0,332,,0,0,0,*7B
$GPRMC,140513.24,A,4455.6288,N,9328.9777,W,11.2,91.9,40608,1.2,E,A*23,,,,,,,
$GPGGA,140513.24,4455.6288,N,9328.9777,W,1,5,2.2,298.3,M,-30.7,M,,*5C,,,,,
$GPGSA,A,3,21,18,15,24,22,,,,,,,,3.5,2.2,02.7*09,,
$GPGSV,3,1,12,21,86,276,43,18,65,284,42,15,51,60,43,24,46,125,40*74
$GPGSV,3,2,12,22,26,264,35,3,18,313,27,8,15,50,,9,14,138,*78
$GPGSV,3,3,12,29,10,40,34,16,0,301,,19,0,332,,0,0,0,*7C
$GPRMC,140514.24,A,4455.6286,N,9328.9741,W,9.3,91.9,40608,1.2,E,A*27,,,,,,,
$GPGGA,140514.24,4455.6286,N,9328.9741,W,1,5,2.2,298.9,M,-30.7,M,,*5A,,,,,
$GPGSA,A,3,21,18,15,24,22,,,,,,,,3.5,2.2,02.7*09,,
$GPGSV,3,1,12,21,86,276,43,18,65,284,42,15,51,60,43,24,45,125,40*77
$GPGSV,3,2,12,22,26,264,35,3,18,313,26,8,15,50,,9,14,138,*79
$GPGSV,3,3,12,29,10,40,32,16,0,301,,19,0,332,,0,0,0,*7A
$GPRMC,140515.24,A,4455.6288,N,9328.9721,W,6.1,91.9,40608,1.2,E,A*23,,,,,,,
$GPGGA,140515.24,4455.6288,N,9328.9721,W,1,4,3,300.1,M,-30.7,M,,*59,,,,,
$GPGSA,A,3,21,18,15,24,,,,,,,,,9,3,08.5*0D,,
$GPGSV,3,1,12,21,86,276,43,18,65,284,42,15,51,60,43,24,45,125,39*79
$GPGSV,3,2,12,22,26,264,33,3,18,313,25,8,15,50,,9,14,138,*7C
$GPGSV,3,3,12,29,10,40,30,16,0,301,,19,0,332,,0,0,0,*78
$GPRMC,140516.24,A,4455.629,N,9328.9716,W,3.6,91.7,40608,1.2,E,A*21,,,,,,,
$GPGGA,140516.24,4455.629,N,9328.9716,W,1,5,2.2,299.8,M,-30.7,M,,*5D,,,,,
$GPGSA,A,3,21,18,15,24,22,,,,,,,,3.5,2.2,02.7*09,,
$GPGSV,3,1,12,21,86,276,42,18,65,284,42,15,51,60,43,24,45,125,39*78
$GPGSV,3,2,12,22,26,264,31,3,18,313,25,8,15,50,,9,14,138,*7E
$GPGSV,3,3,12,29,10,40,29,16,0,301,,19,0,332,,0,0,0,*70
$GPRMC,140517.24,A,4455.6289,N,9328.9714,W,4,91.7,40608,1.2,E,A*2B,,,,,,,
$GPGGA,140517.24,4455.6289,N,9328.9714,W,1,6,1.6,299.9,M,-30.7,M,,*53,,,,,
$GPGSA,A,3,21,18,15,24,22,3,,,,,,,2.6,1.6,02.1*09,,
$GPGSV,3,1,12,21,86,276,41,18,65,284,43,15,51,60,43,24,45,125,38*7B
$GPGSV,3,2,12,22,26,264,32,3,18,313,27,8,15,50,,9,14,138,*7F
$GPGSV,3,3,12,29,10,40,27,16,0,301,,19,0,332,,0,0,0,*7E
$GPRMC,140518.24,A,4455.6291,N,9328.9697,W,7.4,91.4,40608,1.2,E,A*23,,,,,,,
$GPGGA,140518.24,4455.6291,N,9328.9697,W,1,5,2.2,300.1,M,-30.7,M,,*52,,,,,
$GPGSA,A,3,21,18,15,24,22,,,,,,,,3.5,2.2,02.7*09,,
$GPGSV,3,1,12,21,86,276,41,18,65,284,43,15,51,60,42,24,45,125,37*75
$GPGSV,3,2,12,22,26,264,33,3,18,313,28,8,15,50,,9,14,138,*71
$GPGSV,3,3,12,29,10,40,28,16,0,301,,19,0,332,,0,0,0,*71
$GPRMC,140519.24,A,4455.6293,N,9328.9658,W,11.5,91.5,40608,1.2,E,A*24,,,,,,,
$GPGGA,140519.24,4455.6293,N,9328.9658,W,1,5,2.2,299.3,M,-30.7,M,,*51,,,,,
$GPGSA,A,3,21,18,15,24,22,,,,,,,,3.5,2.2,02.7*09,,
$GPGSV,3,1,12,21,86,276,41,18,65,284,44,15,51,60,41,24,45,125,37*71
$GPGSV,3,2,12,22,26,264,34,3,18,313,30,8,15,50,,9,14,138,*7F
$GPGSV,3,3,12,29,9,40,30,16,0,301,,19,0,332,,0,0,0,*70
$GPRMC,140520.24,A,4455.629,N,9328.9608,W,14.7,91.2,40608,1.2,E,A*28,,,,,,,
$GPGGA,140520.24,4455.629,N,9328.9608,W,1,6,1.6,298.1,M,-30.7,M,,*5A,,,,,
$GPGSA,A,3,21,18,15,24,22,3,,,,,,,2.6,1.6,02.1*09,,
$GPGSV,3,1,12,21,86,276,40,18,65,284,45,15,51,60,40,24,45,125,37*70
$GPGSV,3,2,12,22,26,264,35,3,18,313,30,8,15,50,,9,14,138,*7E
$GPGSV,3,3,12,29,9,40,34,16,0,301,,19,0,332,,0,0,0,*74
$GPRMC,140521.24,A,4455.6293,N,9328.9544,W,15.1,90.5,40608,1.2,E,A*20,,,,,,,
$GPGGA,140521.24,4455.6293,N,9328.9544,W,1,6,1.6,297,M,-30.7,M,,*5D,,,,,
$GPGSA,A,3,21,18,15,24,22,3,,,,,,,2.6,1.6,02.1*09,,
$GPGSV,3,1,12,21,86,276,41,18,65,284,45,15,51,60,40,24,45,125,37*71
$GPGSV,3,2,12,22,26,264,36,3,18,313,31,8,15,50,,9,14,138,*7C
$GPGSV,3,3,12,29,9,40,35,16,0,301,,19,0,332,,0,0,0,*75
$GPRMC,140522.24,A,4455.6291,N,9328.947,W,16,90.2,40608,1.2,E,A*22,,,,,,,
$GPGGA,140522.24,4455.6291,N,9328.947,W,1,6,1.6,295.7,M,-30.7,M,,*5F,,,,,
$GPGSA,A,3,21,18,15,24,22,3,,,,,,,2.6,1.6,02.1*09,,
$GPGSV,3,1,12,21,86,276,42,18,65,284,45,15,51,60,41,24,45,125,36*72
$GPGSV,3,2,12,22,26,264,37,3,18,313,32,8,15,50,,9,14,138,*7E
$GPGSV,3,3,12,29,9,40,35,16,0,301,,19,0,332,,0,0,0,*75
$GPRMC,140523.24,A,4455.6293,N,9328.9385,W,21.8,89.9,40608,1.2,E,A*23,,,,,,,
$GPGGA,140523.24,4455.6293,N,9328.9385,W,1,6,1.6,295.7,M,-30.7,M,,*51,,,,,
$GPGSA,A,3,21,18,15,24,22,3,,,,,,,2.6,1.6,02.1*09,,
$GPGSV,3,1,12,21,86,276,42,18,65,284,44,15,51,60,42,24,45,125,35*73
$GPGSV,3,2,12,22,26,264,37,3,18,313,34,8,15,50,,9,14,138,*78
$GPGSV,3,3,12,29,9,40,33,16,0,301,,19,0,332,,0,0,0,*73
$GPRMC,140524.24,A,4455.6298,N,9328.93,W,23,90.1,40608,1.2,E,A*28,,,,,,,
$GPGGA,140524.24,4455.6298,N,9328.93,W,1,5,2.8,295.8,M,-30.7,M,,*51,,,,,
$GPGSA,A,3,21,18,15,,22,3,,,,,,,4.1,2.8,03.0*03,,
$GPGSV,3,1,12,21,86,276,42,18,65,284,44,15,51,60,42,24,45,125,35*73
$GPGSV,3,2,12,22,26,264,37,3,18,313,36,8,15,50,,9,14,138,*7A
$GPGSV,3,3,12,29,9,40,30,16,0,301,,19,0,332,,0,0,0,*70
$GPRMC,140525.24,A,4455.6296,N,9328.9207,W,23.3,90.2,40608,1.2,E,A*21,,,,,,,
$GPGGA,140525.24,4455.6296,N,9328.9207,W,1,6,1.6,295.6,M,-30.7,M,,*58,,,,,
$GPGSA,A,3,21,18,15,24,22,3,,,,,,,2.6,1.6,02.1*09,,
$GPGSV,3,1,12,21,86,276,43,18,65,284,44,15,51,60,42,24,45,125,35*72
$GPGSV,3,2,12,22,26,264,37,3,18,313,36,8,15,50,,9,14,138,*7A
$GPGSV,3,3,12,29,9,40,30,16,0,301,,19,0,332,,0,0,0,*70
$GPRMC,140526.24,A,4455.6293,N,9328.9111,W,24.2,90.2,40608,1.2,E,A*25,,,,,,,
$GPGGA,140526.24,4455.6293,N,9328.9111,W,1,5,2.2,295.4,M,-30.7,M,,*5C,,,,,
$GPGSA,A,3,21,18,15,24,22,,,,,,,,3.5,2.2,02.7*09,,
$GPGSV,3,1,12,21,86,276,43,18,65,284,44,15,51,60,43,24,45,125,35*73
$GPGSV,3,2,12,22,26,264,38,3,18,313,34,8,15,50,,9,14,138,*77
$GPGSV,3,3,12,29,9,40,33,16,0,301,,19,0,332,,0,0,0,*73
$GPRMC,140527.24,A,4455.6293,N,9328.9017,W,24.4,89.4,40608,1.2,E,A*2B,,,,,,,
$GPGGA,140527.24,4455.6293,N,9328.9017,W,1,6,1.6,294.4,M,-30.7,M,,*5F,,,,,
$GPGSA,A,3,21,18,15,24,22,3,,,,,,,2.6,1.6,02.1*09,,
$GPGSV,3,1,12,21,86,276,43,18,65,284,44,15,51,60,43,24,45,125,35*73
$GPGSV,3,2,12,22,26,264,38,3,18,313,34,8,15,50,,9,14,138,*77
$GPGSV,3,3,12,29,9,40,32,16,0,301,,19,0,332,,0,0,0,*72
$GPRMC,140528.24,A,4455.6291,N,9328.8917,W,25.6,89.7,40608,1.2,E,A*2E,,,,,,,
$GPGGA,140528.24,4455.6291,N,9328.8917,W,1,5,2.2,294.2,M,-30.7,M,,*58,,,,,
$GPGSA,A,3,21,18,15,24,22,,,,,,,,3.5,2.2,02.7*09,,
$GPGSV,3,1,12,21,86,276,43,18,65,284,44,15,51,60,43,24,45,125,35*73
$GPGSV,3,2,12,22,26,264,38,3,18,313,33,8,15,50,,9,14,138,*70
$GPGSV,3,3,12,29,9,40,32,16,0,301,,19,0,332,,0,0,0,*72
$GPRMC,140529.24,A,4455.6295,N,9328.881,W,25.9,89.9,40608,1.2,E,A*2C,,,,,,,
$GPGGA,140529.24,4455.6295,N,9328.881,W,1,6,1.6,292.1,M,-30.7,M,,*5A,,,,,
$GPGSA,A,3,21,18,15,24,22,3,,,,,,,2.6,1.6,02.1*09,,
$GPGSV,3,1,12,21,86,276,43,18,65,284,44,15,51,60,43,24,45,125,35*73
$GPGSV,3,2,12,22,26,264,38,3,18,312,35,8,15,50,,9,14,138,*77
$GPGSV,3,3,12,29,9,40,30,16,0,301,,19,0,332,,0,0,0,*70
$GPRMC,140530.24,A,4455.6299,N,9328.8707,W,26.9,89.8,40608,1.2,E,A*23,,,,,,,
$GPGGA,140530.24,4455.6299,N,9328.8707,W,1,5,2.2,292.2,M,-30.7,M,,*50,,,,,
$GPGSA,A,3,21,18,15,24,22,,,,,,,,3.5,2.2,02.7*09,,
$GPGSV,3,1,12,21,86,276,43,18,65,284,44,15,51,60,43,24,45,125,35*73
$GPGSV,3,2,12,22,26,264,38,3,18,312,34,8,15,50,,9,14,138,*76
$GPGSV,3,3,12,29,9,40,28,16,0,301,,19,0,332,,0,0,0,*79
$GPRMC,140531.24,A,4455.6299,N,9328.8597,W,27,89.7,40608,1.2,E,A*2E,,,,,,,
$GPGGA,140531.24,4455.6299,N,9328.8597,W,1,6,1.6,290.8,M,-30.7,M,,*56,,,,,
$GPGSA,A,3,21,18,15,24,22,3,,,,,,,2.6,1.6,02.1*09,,
$GPGSV,3,1,12,21,86,276,43,18,65,284,44,15,51,60,43,24,45,125,35*73
$GPGSV,3,2,12,22,26,264,38,3,18,312,34,8,15,50,,9,14,138,*76
$GPGSV,3,3,12,29,9,40,30,16,0,301,,19,0,332,,0,0,0,*70
$GPRMC,140532.24,A,4455.6297,N,9328.8489,W,28.4,89.7,40608,1.2,E,A*26,,,,,,,
$GPGGA,140532.24,4455.6297,N,9328.8489,W,1,5,2.2,290.9,M,-30.7,M,,*50,,,,,
$GPGSA,A,3,21,18,15,24,22,,,,,,,,3.5,2.2,02.7*09,,
$GPGSV,3,1,12,21,86,276,43,18,65,284,44,15,51,60,43,24,45,125,35*73
$GPGSV,3,2,12,22,26,264,38,3,18,312,32,8,15,50,,9,14,138,*70
$GPGSV,3,3,12,29,9,40,29,16,0,301,,19,0,332,,0,0,0,*78
$GPRMC,140533.24,A,4455.6295,N,9328.8376,W,28.6,89.8,40608,1.2,E,A*2F,,,,,,,
$GPGGA,140533.24,4455.6295,N,9328.8376,W,1,6,1.6,290.1,M,-30.7,M,,*58,,,,,
$GPGSA,A,3,21,18,15,24,,22,3,,,,,,2.6,1.6,02.1*09,,
$GPGSV,3,1,12,21,86,276,43,18,65,284,44,15,51,60,43,24,45,125,36*70
$GPGSV,3,2,12,6,28,300,,22,26,264,35,3,18,312,37,8,15,50,*71
$GPGSV,3,3,12,9,14,138,,29,9,40,30,16,0,301,,0,0,0,*7C
$GPRMC,140534.24,A,4455.6298,N,9328.8264,W,28.4,89.8,40608,1.2,E,A*25,,,,,,,
$GPGGA,140534.24,4455.6298,N,9328.8264,W,1,6,1.6,288.7,M,-30.7,M,,*5F,,,,,
$GPGSA,A,3,21,18,15,24,,22,3,,,,,,2.6,1.6,02.1*09,,
$GPGSV,3,1,12,21,86,276,43,18,65,284,44,15,51,60,42,24,45,125,36*71
$GPGSV,3,2,12,6,28,300,,22,26,264,36,3,18,312,36,8,15,50,*73
$GPGSV,3,3,12,9,14,138,,29,9,40,29,16,0,301,,0,0,0,*74
$GPRMC,140535.24,A,4455.6298,N,9328.8154,W,27.1,89.7,40608,1.2,E,A*21,,,,,,,
$GPGGA,140535.24,4455.6298,N,9328.8154,W,1,5,2.2,289,M,-30.7,M,,*5C,,,,,
$GPGSA,A,3,21,18,15,24,,22,,,,,,,3.5,2.2,02.7*09,,
$GPGSV,3,1,12,21,86,276,43,18,65,284,45,15,51,60,41,24,45,125,36*73
$GPGSV,3,2,12,6,28,300,40,22,26,264,37,3,18,312,33,8,15,50,*73
$GPGSV,3,3,12,9,15,138,,29,9,40,29,16,0,301,,0,0,0,*75
$GPRMC,140536.24,A,4455.6304,N,9328.8044,W,26.7,89.6,40608,1.2,E,A*20,,,,,,,
$GPGGA,140536.24,4455.6304,N,9328.8044,W,1,6,1.6,288.2,M,-30.7,M,,*5C,,,,,
$GPGSA,A,3,21,18,15,24,,22,3,,,,,,2.6,1.6,02.1*09,,
$GPGSV,3,1,12,21,86,276,42,18,65,284,45,15,51,60,40,24,45,125,35*70
$GPGSV,3,2,12,6,28,300,40,22,26,264,37,3,18,312,34,8,15,50,*74
$GPGSV,3,3,12,9,15,138,,29,9,40,30,16,0,301,,0,0,0,*7D
$GPRMC,140537.24,A,4455.6307,N,9328.7944,W,26.4,89.5,40608,1.2,E,A*24,,,,,,,
$GPGGA,140537.24,4455.6307,N,9328.7944,W,1,5,2.2,288.5,M,-30.7,M,,*5B,,,,,
$GPGSA,A,3,21,18,15,24,,22,,,,,,,3.5,2.2,02.7*09,,
$GPGSV,3,1,12,21,86,276,42,18,65,284,46,15,51,60,40,24,45,125,35*73
$GPGSV,3,2,12,6,28,300,40,22,26,264,37,3,18,312,33,8,15,50,*73
$GPGSV,3,3,12,9,15,138,,29,9,40,31,16,0,301,,0,0,0,*7C
$GPRMC,140538.24,A,4455.6301,N,9328.7848,W,26,89.5,40608,1.2,E,A*24,,,,,,,
$GPGGA,140538.24,4455.6301,N,9328.7848,W,1,6,1.6,289.1,M,-30.7,M,,*5E,,,,,
$GPGSA,A,3,21,18,15,24,,22,3,,,,,,2.6,1.6,02.1*09,,
$GPGSV,3,1,12,21,86,276,42,18,65,284,46,15,51,60,40,24,45,125,35*73
$GPGSV,3,2,12,6,28,300,40,22,26,264,38,3,18,312,33,8,15,50,*7C
$GPGSV,3,3,12,9,15,138,,29,9,40,31,16,0,301,,0,0,0,*7C
$GPRMC,140539.24,A,4455.6301,N,9328.7746,W,25.2,89.7,40608,1.2,E,A*27,,,,,,,
$GPGGA,140539.24,4455.6301,N,9328.7746,W,1,6,1.6,289.4,M,-30.7,M,,*5B,,,,,
$GPGSA,A,3,21,18,15,24,,22,3,,,,,,2.6,1.6,02.1*09,,
$GPGSV,3,1,12,21,86,276,42,18,65,284,46,15,51,60,40,24,45,125,36*70
$GPGSV,3,2,12,6,28,300,39,22,26,264,38,3,18,312,34,8,15,50,*75
$GPGSV,3,3,12,9,15,138,,29,9,40,32,16,0,301,,0,0,0,*7F
$GPRMC,140540.24,A,4455.6303,N,9328.7646,W,25.1,89.8,40608,1.2,E,A*26,,,,,,,
$GPGGA,140540.24,4455.6303,N,9328.7646,W,1,5,2.2,289.5,M,-30.7,M,,*53,,,,,
$GPGSA,A,3,21,18,15,24,,22,,,,,,,3.5,2.2,02.7*09,,
$GPGSV,3,1,12,21,86,276,43,18,65,284,46,15,51,60,39,24,45,125,37*7E
$GPGSV,3,2,12,6,28,300,39,22,26,264,38,3,18,312,33,8,15,50,*72
$GPGSV,3,3,12,9,15,138,,29,9,40,31,16,0,301,,0,0,0,*7C
$GPRMC,140541.24,A,4455.6301,N,9328.7549,W,25.1,89.8,40608,1.2,E,A*29,,,,,,,
$GPGGA,140541.24,4455.6301,N,9328.7549,W,1,5,2.2,289.6,M,-30.7,M,,*5F,,,,,
$GPGSA,A,3,21,18,15,24,,22,,,,,,,3.5,2.2,02.7*09,,
$GPGSV,3,1,12,21,86,276,43,18,65,284,46,15,51,60,39,24,45,125,37*7E
$GPGSV,3,2,12,6,28,300,37,22,26,264,39,3,18,312,31,8,15,50,*7F
$GPGSV,3,3,12,9,15,138,,29,9,40,28,16,0,301,,0,0,0,*74
$GPRMC,140542.24,A,4455.6303,N,9328.7454,W,25.1,89.7,40608,1.2,E,A*2A,,,,,,,
$GPGGA,140542.24,4455.6303,N,9328.7454,W,1,6,1.6,290.8,M,-30.7,M,,*51,,,,,
$GPGSA,A,3,21,18,15,24,,22,3,,,,,,2.6,1.6,02.1*09,,
$GPGSV,3,1,12,21,86,276,43,18,66,285,46,15,51,60,40,24,45,125,36*73
$GPGSV,3,2,12,6,28,300,34,22,26,264,39,3,18,312,31,8,15,50,*7C
$GPGSV,3,3,12,9,15,138,,29,9,40,25,16,0,301,,0,0,0,*79
$GPRMC,140543.24,A,4455.6305,N,9328.736,W,25,89.8,40608,1.2,E,A*23,,,,,,,
$GPGGA,140543.24,4455.6305,N,9328.736,W,1,6,1.6,294.1,M,-30.7,M,,*5B,,,,,
$GPGSA,A,3,21,18,15,24,,22,3,,,,,,2.6,1.6,02.1*09,,
$GPGSV,3,1,12,21,86,276,43,18,66,285,47,15,51,60,40,24,45,125,36*72
$GPGSV,3,2,12,6,28,300,32,22,26,264,39,3,18,312,31,8,15,50,*7A
$GPGSV,3,3,12,9,15,138,,29,9,40,25,16,0,301,,0,0,0,*79
$GPRMC,140544.24,A,4455.6308,N,9328.7263,W,25.1,89.9,40608,1.2,E,A*2B,,,,,,,
$GPGGA,140544.24,4455.6308,N,9328.7263,W,1,6,1.6,294.3,M,-30.7,M,,*51,,,,,
$GPGSA,A,3,21,18,15,24,,22,3,,,,,,2.6,1.6,02.1*09,,
$GPGSV,3,1,12,21,86,276,42,18,66,285,47,15,51,60,39,24,45,125,36*7D
$GPGSV,3,2,12,6,28,300,34,22,26,264,40,3,18,312,32,8,15,50,*71
$GPGSV,3,3,12,9,15,138,,29,9,40,26,16,0,301,,0,0,0,*7A
$GPRMC,140545.24,A,4455.6308,N,9328.7166,W,25.1,89.5,40608,1.2,E,A*20,,,,,,,
$GPGGA,140545.24,4455.6308,N,9328.7166,W,1,5,2.2,295.9,M,-30.7,M,,*59,,,,,
$GPGSA,A,3,21,18,15,24,,22,,,,,,,3.5,2.2,02.7*09,,
$GPGSV,3,1,12,21,86,273,41,18,66,285,47,15,51,60,38,24,45,125,36*7A
$GPGSV,3,2,12,6,28,300,35,22,26,264,40,3,18,312,31,8,15,50,*73
$GPGSV,3,3,12,9,15,138,,29,9,40,25,16,0,301,,0,0,0,*79
$GPRMC,140546.24,A,4455.6308,N,9328.7066,W,25.3,89.5,40608,1.2,E,A*20,,,,,,,
$GPGGA,140546.24,4455.6308,N,9328.7066,W,1,5,2.2,296.3,M,-30.7,M,,*52,,,,,
$GPGSA,A,3,21,18,15,24,,22,,,,,,,3.5,2.2,02.7*09,,
$GPGSV,3,1,12,21,86,273,40,18,66,285,47,15,51,60,36,24,45,125,36*75
$GPGSV,3,2,12,6,28,300,34,22,26,265,40,3,18,312,30,8,15,50,*72
$GPGSV,3,3,12,9,15,138,,29,9,40,25,16,0,301,,0,0,0,*79
$GPRMC,140547.24,A,4455.6313,N,9328.6963,W,25.3,89.6,40608,1.2,E,A*25,,,,,,,
$GPGGA,140547.24,4455.6313,N,9328.6963,W,1,6,1.6,296.4,M,-30.7,M,,*57,,,,,
$GPGSA,A,3,21,18,15,24,,22,3,,,,,,2.6,1.6,02.1*09,,
$GPGSV,3,1,12,21,86,273,40,18,66,285,47,15,51,60,35,24,45,125,36*76
$GPGSV,3,2,12,6,28,300,32,22,26,265,40,3,18,312,33,8,15,50,*77
$GPGSV,3,3,12,9,15,138,,29,9,40,24,16,0,301,,0,0,0,*78
$GPRMC,140548.24,A,4455.6314,N,9328.6864,W,25,89.8,40608,1.2,E,A*26,,,,,,,
$GPGGA,140548.24,4455.6314,N,9328.6864,W,1,6,1.6,296.8,M,-30.7,M,,*55,,,,,
$GPGSA,A,3,21,18,15,24,,22,3,,,,,,2.6,1.6,02.1*09,,
$GPGSV,3,1,12,21,86,273,40,18,66,285,47,15,51,60,35,24,45,125,36*76
$GPGSV,3,2,12,6,28,300,29,22,26,265,40,3,18,312,35,8,15,50,*7B
$GPGSV,3,3,12,9,15,138,,29,9,40,26,16,0,301,,0,0,0,*7A
$GPRMC,140549.24,A,4455.6315,N,9328.6769,W,23.8,88.9,40608,1.2,E,A*2A,,,,,,,
$GPGGA,140549.24,4455.6315,N,9328.6769,W,1,5,2.1,298.2,M,-30.7,M,,*54,,,,,
$GPGSA,A,3,21,18,,24,,22,3,,,,,,3,2.1,02.1*0E,,
$GPGSV,3,1,12,21,86,273,41,18,66,285,47,15,51,60,33,24,45,125,36*71
$GPGSV,3,2,12,6,28,300,28,22,26,265,40,3,18,312,34,8,15,50,*7B
$GPGSV,3,3,12,9,15,138,,29,9,40,28,16,0,301,,0,0,0,*74
$GPRMC,140550.24,A,4455.631,N,9328.6678,W,23.6,88.9,40608,1.2,E,A*28,,,,,,,
$GPGGA,140550.24,4455.631,N,9328.6678,W,1,5,2.2,300.2,M,-30.7,M,,*5B,,,,,
$GPGSA,A,3,21,18,15,24,,22,,,,,,,3.5,2.2,02.7*09,,
$GPGSV,3,1,12,21,86,273,40,18,66,285,47,15,51,60,33,24,45,125,36*70
$GPGSV,3,2,12,6,28,300,27,22,26,265,39,3,18,312,34,8,15,50,*7A
$GPGSV,3,3,12,9,15,138,,29,9,40,28,16,0,301,,0,0,0,*74
$GPRMC,140551.24,A,4455.6305,N,9328.6588,W,23.6,89.2,40608,1.2,E,A*2B,,,,,,,
$GPGGA,140551.24,4455.6305,N,9328.6588,W,1,5,2.2,302.8,M,-30.7,M,,*5A,,,,,
$GPGSA,A,3,21,18,15,24,,22,,,,,,,3.5,2.2,02.7*09,,
$GPGSV,3,1,12,21,86,273,39,18,66,285,47,15,51,60,34,24,45,125,36*79
$GPGSV,3,2,12,6,28,300,30,22,26,265,39,3,18,312,34,8,15,50,*7C
$GPGSV,3,3,12,9,15,138,,29,9,40,31,16,0,301,,0,0,0,*7C
$GPRMC,140552.24,A,4455.6301,N,9328.6496,W,23.8,89.6,40608,1.2,E,A*28,,,,,,,
$GPGGA,140552.24,4455.6301,N,9328.6496,W,1,6,1.6,302.8,M,-30.7,M,,*57,,,,,
$GPGSA,A,3,21,18,15,24,,22,3,,,,,,2.6,1.6,02.1*09,,
$GPGSV,3,1,12,21,86,273,39,18,66,285,47,15,51,60,35,24,45,125,36*78
$GPGSV,3,2,12,6,28,300,33,22,26,265,40,3,18,312,36,8,15,50,*73
$GPGSV,3,3,12,9,15,138,,29,9,40,33,16,0,301,,0,0,0,*7E
$GPRMC,140553.24,A,4455.6307,N,9328.6404,W,23.8,89.9,40608,1.2,E,A*2B,,,,,,,
$GPGGA,140553.24,4455.6307,N,9328.6404,W,1,5,2.8,303.5,M,-30.7,M,,*59,,,,,
$GPGSA,A,3,21,18,15,,,22,3,,,,,,4.1,2.8,03.0*03,,
$GPGSV,3,1,12,21,86,273,39,18,66,285,47,15,51,60,35,24,45,125,34*7A
$GPGSV,3,2,12,6,28,300,36,22,26,265,40,3,18,312,37,8,15,50,*77
$GPGSV,3,3,12,9,15,138,,29,15,185,32,16,0,301,,0,0,0,*7A
$GPRMC,140554.24,A,4455.6309,N,9328.6307,W,24.6,89.9,40608,1.2,E,A*2F,,,,,,,
$GPGGA,140554.24,4455.6309,N,9328.6307,W,1,6,1.6,302.5,M,-30.7,M,,*5B,,,,,
$GPGSA,A,3,21,18,15,24,,22,3,,,,,,2.6,1.6,02.1*09,,
$GPGSV,3,1,12,21,86,273,40,18,66,285,47,15,51,60,36,24,45,125,34*77
$GPGSV,3,2,12,6,28,300,37,22,26,265,39,3,18,312,38,8,15,50,*77
$GPGSV,3,3,12,9,15,138,,29,15,185,30,16,0,301,,0,0,0,*78
$GPRMC,140555.24,A,4455.6313,N,9328.621,W,24.9,89.8,40608,1.2,E,A*2C,,,,,,,
$GPGGA,140555.24,4455.6313,N,9328.621,W,1,6,1.6,301.9,M,-30.7,M,,*59,,,,,
$GPGSA,A,3,21,18,15,24,,22,3,,,,,,2.6,1.6,02.1*09,,
$GPGSV,3,1,12,21,86,273,41,18,66,285,46,15,51,60,38,24,45,125,34*79
$GPGSV,3,2,12,6,28,300,36,22,26,265,38,3,18,312,37,29,15,185,25*75
$GPGSV,3,3,12,8,15,50,,9,15,138,,16,0,301,,0,0,0,*71
$GPRMC,140556.24,A,4455.6315,N,9328.6111,W,25.3,89.7,40608,1.2,E,A*2F,,,,,,,
$GPGGA,140556.24,4455.6315,N,9328.6111,W,1,5,2.2,301.5,M,-30.7,M,,*56,,,,,
$GPGSA,A,3,21,18,15,24,,22,,,,,,,3.5,2.2,02.7*09,,
$GPGSV,3,1,12,21,86,273,41,18,66,285,45,15,51,60,39,24,45,125,34*7B
$GPGSV,3,2,12,6,28,300,33,22,26,265,37,3,18,312,34,29,15,185,24*7D
$GPGSV,3,3,12,8,15,50,,9,15,138,,16,0,301,,0,0,0,*71
$GPRMC,140557.24,A,4455.6313,N,9328.6014,W,25.6,89.7,40608,1.2,E,A*29,,,,,,,
$GPGGA,140557.24,4455.6313,N,9328.6014,W,1,4,3,298.4,M,-30.7,M,,*57,,,,,
$GPGSA,A,3,21,18,15,24,,,,,,,,,9,3,08.5*0D,,
$GPGSV,3,1,12,21,86,273,41,18,66,285,45,15,51,60,38,24,45,125,35*7B
$GPGSV,3,2,12,6,28,300,33,22,26,265,35,3,18,312,32,29,15,185,23*7E
$GPGSV,3,3,12,8,15,50,,9,15,138,,16,0,301,,0,0,0,*71
$GPRMC,140558.24,A,4455.6308,N,9328.5915,W,26.8,89.7,40608,1.2,E,A*2A,,,,,,,
$GPGGA,140558.24,4455.6308,N,9328.5915,W,1,4,3,296.3,M,-30.7,M,,*50,,,,,
$GPGSA,A,3,21,18,15,24,,,,,,,,,9,3,08.5*0D,,
$GPGSV,3,1,12,21,86,273,42,18,66,285,45,15,51,60,38,24,45,125,36*7B
$GPGSV,3,2,12,6,28,300,32,22,26,265,33,3,18,312,29,29,15,185,24*74
$GPGSV,3,3,12,8,15,50,,9,15,138,,16,0,301,,0,0,0,*71
$GPRMC,140559.24,A,4455.6302,N,9328.5806,W,27.6,89.6,40608,1.2,E,A*2C,,,,,,,
$GPGGA,140559.24,4455.6302,N,9328.5806,W,1,4,3,297,M,-30.7,M,,*5A,,,,,
$GPGSA,A,3,21,18,15,24,,,,,,,,,9,3,08.5*0D,,
$GPGSV,3,1,12,21,86,273,42,18,66,285,45,15,51,60,38,24,45,125,37*7A
$GPGSV,3,2,12,6,28,300,30,22,26,265,31,3,18,312,27,29,15,185,23*7D
$GPGSV,3,3,12,8,15,50,,9,15,138,,16,0,301,,0,0,0,*71
$GPRMC,140600.24,A,4455.6299,N,9328.5701,W,27.6,89.8,40608,1.2,E,A*26,,,,,,,
$GPGGA,140600.24,4455.6299,N,9328.5701,W,1,5,2.2,297.5,M,-30.7,M,,*59,,,,,
$GPGSA,A,3,21,18,15,24,,22,,,,,,,3.5,2.2,02.7*09,,
$GPGSV,3,1,12,21,86,273,42,18,66,285,45,15,51,60,38,24,45,125,37*7A
$GPGSV,3,2,12,6,28,300,28,22,26,265,33,3,18,312,25,29,15,185,22*75
$GPGSV,3,3,12,8,15,50,,9,15,138,,16,0,301,,0,0,0,*71
$GPRMC,140601.24,A,4455.6297,N,9328.5593,W,27.4,92,40608,1.2,E,A*20,,,,,,,
$GPGGA,140601.24,4455.6297,N,9328.5593,W,1,5,2.2,297.3,M,-30.7,M,,*59,,,,,
$GPGSA,A,3,21,18,15,24,,22,,,,,,,3.5,2.2,02.7*09,,
$GPGSV,3,1,12,21,86,273,42,18,66,285,44,15,51,60,38,24,45,125,36*7A
$GPGSV,3,2,12,6,28,300,29,22,26,265,34,3,18,312,24,29,15,185,22*72
$GPGSV,3,3,12,8,15,50,,9,15,138,,16,0,301,,0,0,0,*71
$GPRMC,140602.24,A,4455.6298,N,9328.5486,W,27.5,85.7,40608,1.2,E,A*29,,,,,,,
$GPGGA,140602.24,4455.6298,N,9328.5486,W,1,5,2.8,297.2,M,-30.7,M,,*5B,,,,,
$GPGSA,A,3,21,18,15,,,22,3,,,,,,4.1,2.8,03.0*03,,
$GPGSV,3,1,12,21,86,273,42,18,66,285,44,15,51,60,39,24,45,125,34*79
$GPGSV,3,2,12,6,28,300,29,22,26,265,36,3,18,312,27,29,15,185,20*71
$GPGSV,3,3,12,8,15,50,,9,15,138,,16,0,301,,0,0,0,*71
$GPRMC,140603.24,A,4455.6298,N,9328.5377,W,28.3,87.9,40608,1.2,E,A*24,,,,,,,
$GPGGA,140603.24,4455.6298,N,9328.5377,W,1,6,1.6,297,M,-30.7,M,,*5F,,,,,
$GPGSA,A,3,21,18,15,24,,22,3,,,,,,2.6,1.6,02.1*09,,
$GPGSV,3,1,12,21,86,273,42,18,66,285,45,15,51,60,38,24,45,125,35*78
$GPGSV,3,2,12,6,28,300,32,22,26,265,38,3,18,312,30,29,15,185,19*79
$GPGSV,3,3,12,8,15,50,,9,15,138,,16,0,301,,0,0,0,*71
$GPRMC,140604.24,A,4455.6299,N,9328.5264,W,28.6,89,40608,1.2,E,A*23,,,,,,,
$GPGGA,140604.24,4455.6299,N,9328.5264,W,1,5,2.2,296.8,M,-30.7,M,,*57,,,,,
$GPGSA,A,3,21,18,15,24,,22,,,,,,,3.5,2.2,02.7*09,,
$GPGSV,3,1,12,21,86,273,42,18,66,285,46,15,51,60,38,24,45,125,35*7B
$GPGSV,3,2,12,6,28,300,34,22,26,265,39,3,18,312,31,29,15,185,19*7F
$GPGSV,3,3,12,8,15,50,,9,15,138,,16,0,301,,0,0,0,*71
$GPRMC,140605.24,A,4455.6299,N,9328.5154,W,28.5,89.4,40608,1.2,E,A*25,,,,,,,
$GPGGA,140605.24,4455.6299,N,9328.5154,W,1,5,2.2,297.6,M,-30.7,M,,*59,,,,,
$GPGSA,A,3,21,18,15,24,,22,,,,,,,3.5,2.2,02.7*09,,
$GPGSV,3,1,12,21,86,273,41,18,66,285,47,15,51,60,38,24,45,125,34*78
$GPGSV,3,2,12,6,28,300,34,22,26,265,40,3,18,312,30,29,15,185,21*7B
$GPGSV,3,3,12,8,15,50,,9,15,138,,16,0,301,,0,0,0,*71
$GPRMC,140606.24,A,4455.6296,N,9328.5042,W,28.2,89.7,40608,1.2,E,A*2B,,,,,,,
$GPGGA,140606.24,4455.6296,N,9328.5042,W,1,6,1.6,298.6,M,-30.7,M,,*58,,,,,
$GPGSA,A,3,21,18,15,24,,22,3,,,,,,2.6,1.6,02.1*09,,
$GPGSV,3,1,12,21,86,273,41,18,66,285,47,15,51,60,38,24,45,125,34*78
$GPGSV,3,2,12,6,28,300,33,22,26,265,41,3,18,312,32,29,15,185,21*7F
$GPGSV,3,3,12,8,15,50,,9,15,138,,16,0,301,,0,0,0,*71
$GPRMC,140607.24,A,4455.6292,N,9328.4931,W,28.3,90,40608,1.2,E,A*2C,,,,,,,
$GPGGA,140607.24,4455.6292,N,9328.4931,W,1,6,1.6,299.1,M,-30.7,M,,*57,,,,,
$GPGSA,A,3,21,18,15,24,,22,3,,,,,,2.6,1.6,02.1*09,,
$GPGSV,3,1,12,21,86,273,40,18,66,285,47,15,51,60,37,24,45,125,35*77
$GPGSV,3,2,12,6,28,300,34,22,26,265,41,3,18,312,34,29,15,185,20*7F
$GPGSV,3,3,12,8,15,50,,9,15,138,,16,0,301,,0,0,0,*71
$GPRMC,140608.24,A,4455.6288,N,9328.4815,W,28.2,90.2,40608,1.2,E,A*2C,,,,,,,
$GPGGA,140608.24,4455.6288,N,9328.4815,W,1,6,4.2,299.5,M,-30.7,M,,*51,,,,,
$GPGSA,A,3,21,18,15,24,,22,3,,,,,,4.7,4.2,02.1*0F,,
$GPGSV,3,1,12,21,86,273,39,18,66,285,47,15,51,60,36,24,45,125,34*79
$GPGSV,3,2,12,6,28,300,34,22,26,265,40,3,18,312,34,29,15,185,19*74
$GPGSV,3,3,12,8,15,49,,9,15,138,,16,0,301,,0,0,0,*79
$GPRMC,140609.24,A,4455.6291,N,9328.4709,W,28.2,90.3,40608,1.2,E,A*26,,,,,,,
$GPGGA,140609.24,4455.6291,N,9328.4709,W,1,5,2.8,300.7,M,-30.7,M,,*56,,,,,
$GPGSA,A,3,21,18,15,,,22,3,,,,,,4.1,2.8,03.0*03,,
$GPGSV,3,1,12,21,86,273,38,18,66,285,47,15,51,60,36,24,45,125,34*78
$GPGSV,3,2,12,6,28,300,34,22,26,265,40,3,18,312,36,29,15,185,20*7C
$GPGSV,3,3,12,8,15,49,,9,15,138,,16,0,301,,0,0,0,*79
$GPRMC,140610.24,A,4455.6288,N,9328.4596,W,28.1,89.9,40608,1.2,E,A*23,,,,,,,
$GPGGA,140610.24,4455.6288,N,9328.4596,W,1,6,1.6,300.7,M,-30.7,M,,*5C,,,,,
$GPGSA,A,3,21,18,15,24,,22,3,,,,,,2.6,1.6,02.1*09,,
$GPGSV,3,1,12,21,86,273,39,18,66,285,47,15,51,60,35,24,45,125,34*7A
$GPGSV,3,2,12,6,28,300,32,22,26,265,40,3,18,312,36,29,15,185,19*70
$GPGSV,3,3,12,8,15,49,,9,15,138,,16,0,301,,0,0,0,*79
$GPRMC,140611.24,A,4455.6289,N,9328.4487,W,28,89.9,40608,1.2,E,A*23,,,,,,,
$GPGGA,140611.24,4455.6289,N,9328.4487,W,1,5,2.2,301.8,M,-30.7,M,,*57,,,,,
$GPGSA,A,3,21,18,15,24,,22,,,,,,,3.5,2.2,02.7*09,,
$GPGSV,3,1,12,21,86,273,40,18,66,285,47,15,51,60,34,24,45,125,35*74
$GPGSV,3,2,12,6,28,300,29,22,26,265,40,3,18,312,34,29,15,185,19*78
$GPGSV,3,3,12,8,15,49,,9,15,138,,16,0,301,,0,0,0,*79
$GPRMC,140612.24,A,4455.6283,N,9328.438,W,27.6,90,40608,1.2,E,A*22,,,,,,,
$GPGGA,140612.24,4455.6283,N,9328.438,W,1,5,2.2,304.3,M,-30.7,M,,*50,,,,,
$GPGSA,A,3,21,18,15,24,,22,,,,,,,3.5,2.2,02.7*09,,
$GPGSV,3,1,12,21,86,273,40,18,66,285,46,15,51,60,35,24,45,125,36*77
$GPGSV,3,2,12,6,28,300,27,22,26,265,40,3,18,312,33,29,15,185,19*71
$GPGSV,3,3,12,8,15,49,,9,15,138,,16,0,301,,0,0,0,*79
$GPRMC,140613.24,A,4455.6277,N,9328.4272,W,26.4,90.2,40608,1.2,E,A*25,,,,,,,
$GPGGA,140613.24,4455.6277,N,9328.4272,W,1,6,1.6,304.8,M,-30.7,M,,*59,,,,,
$GPGSA,A,3,21,18,15,24,,22,3,,,,,,2.6,1.6,02.1*09,,
$GPGSV,3,1,12,21,86,273,41,18,66,285,45,15,51,60,35,24,45,125,37*74
$GPGSV,3,2,12,6,28,300,26,22,26,265,40,3,18,312,34,29,15,185,19*77
$GPGSV,3,3,12,8,15,49,,9,15,138,,16,0,301,,0,0,0,*79
$GPRMC,140614.24,A,4455.6283,N,9328.4167,W,25.6,90.1,40608,1.2,E,A*2C,,,,,,,
$GPGGA,140614.24,4455.6283,N,9328.4167,W,1,6,4.8,306,M,-30.7,M,,*53,,,,,
$GPGSA,A,3,21,18,15,24,,22,3,,,,,,5.3,4.8,02.1*00,,
$GPGSV,3,1,12,21,86,273,40,18,66,285,44,15,51,60,34,24,45,125,36*74
$GPGSV,3,2,12,6,28,300,21,22,26,265,39,3,18,312,33,29,15,185,19*79
$GPGSV,3,3,12,8,15,49,,9,15,138,,16,0,301,,0,0,0,*79
$GPRMC,140615.24,A,4455.6294,N,9328.4065,W,24,90.3,40608,1.2,E,A*2D,,,,,,,
$GPGGA,140615.24,4455.6294,N,9328.4065,W,1,6,1.6,306.4,M,-30.7,M,,*58,,,,,
$GPGSA,A,3,21,18,15,24,,22,3,,,,,,2.6,1.6,02.1*09,,
$GPGSV,3,1,12,21,86,273,42,18,66,285,44,15,51,60,34,24,45,125,36*76
$GPGSV,3,2,12,6,28,300,27,22,26,265,40,3,18,312,33,29,15,185,21*7A
$GPGSV,3,3,12,8,15,49,,9,15,138,,16,0,301,,0,0,0,*79
$GPRMC,140616.24,A,4455.6292,N,9328.3972,W,24,90.2,40608,1.2,E,A*21,,,,,,,
$GPGGA,140616.24,4455.6292,N,9328.3972,W,1,5,2.2,307.9,M,-30.7,M,,*5D,,,,,
$GPGSA,A,3,21,18,15,24,,22,,,,,,,3.5,2.2,02.7*09,,
$GPGSV,3,1,12,21,86,273,42,18,66,285,44,15,51,60,34,24,45,125,37*77
$GPGSV,3,2,12,6,28,300,28,22,26,265,40,3,18,312,32,29,15,185,23*76
$GPGSV,3,3,12,8,15,49,,9,15,138,,16,0,301,,0,0,0,*79
$GPRMC,140617.24,A,4455.629,N,9328.3879,W,24,90.2,40608,1.2,E,A*28,,,,,,,
$GPGGA,140617.24,4455.629,N,9328.3879,W,1,5,2.2,308.9,M,-30.7,M,,*5B,,,,,
$GPGSA,A,3,21,18,15,24,,22,,,,,,,3.5,2.2,02.7*09,,
$GPGSV,3,1,12,21,86,273,42,18,66,285,45,15,51,60,34,24,45,125,37*76
$GPGSV,3,2,12,6,28,300,27,22,26,265,40,3,18,312,31,29,15,185,23*7A
$GPGSV,3,3,12,9,15,138,,8,15,49,,16,0,301,,0,0,0,*79
$GPRMC,140618.24,A,4455.6289,N,9328.3784,W,24.2,89.9,40608,1.2,E,A*23,,,,,,,
$GPGGA,140618.24,4455.6289,N,9328.3784,W,1,5,2.2,309.6,M,-30.7,M,,*5F,,,,,
$GPGSA,A,3,21,18,,24,,22,3,,,,,,3,2.2,02.1*0D,,
$GPGSV,3,1,12,21,86,273,42,18,66,285,46,15,51,60,33,24,45,125,36*73
$GPGSV,3,2,12,6,28,300,28,22,26,265,40,3,18,312,33,29,15,185,23*77
$GPGSV,3,3,12,9,15,138,,8,15,49,,16,0,301,,0,0,0,*79
$GPRMC,140619.24,A,4455.629,N,9328.3684,W,24.4,89.8,40608,1.2,E,A*2C,,,,,,,
$GPGGA,140619.24,4455.629,N,9328.3684,W,1,6,1.6,310.3,M,-30.7,M,,*5E,,,,,
